%time,field.header.seq,field.header.stamp,field.header.frame_id,field.twist.linear.x,field.twist.linear.y,field.twist.linear.z,field.twist.angular.x,field.twist.angular.y,field.twist.angular.z
1576563410693114000,13,1576563410693114000,base_link,0.174813512963,0.0,0.0,0.00214295077556,1.11391873767e-05,0.000182393378443
1576563410793354000,14,1576563410793354000,base_link,0.272138234582,0.0,0.0,-0.00206055594556,0.00031631666042,-0.00161085594635
1576563410893551000,15,1576563410893551000,base_link,0.148064155375,0.0,0.0,0.00111030281887,0.000234462905937,-0.00334279332691
1576563410993728000,16,1576563410993728000,base_link,0.219540861516,0.0,0.0,0.000555342321243,0.000301427744462,0.00154123651172
1576563411093949000,17,1576563411093949000,base_link,0.0257253196327,0.0,0.0,4.32512057402e-05,-0.000799812042044,0.000870298882962
1576563411194110000,18,1576563411194110000,base_link,0.0895896508129,0.0,0.0,-0.000393718372024,0.000265001073433,-0.00255905092773
1576563411294359000,19,1576563411294359000,base_link,0.154283222387,0.0,0.0,-0.000343961536184,-0.000384675868945,0.00266970966651
1576563411394512000,20,1576563411394512000,base_link,0.0656743855415,0.0,0.0,9.99439515266e-06,-0.0015110074011,0.00124716839557
1576563411494723000,21,1576563411494723000,base_link,0.189315327359,0.0,0.0,-4.1432236155e-05,0.0017142875772,-0.0017559159891
1576563411594904000,22,1576563411594904000,base_link,0.108046488756,0.0,0.0,-0.000382807477893,6.09245004039e-06,-0.0010595965552
1576563411695083000,23,1576563411695083000,base_link,0.227333575162,0.0,0.0,0.000645006902027,0.000473845586662,-0.000145592441291
1576563411795320000,24,1576563411795320000,base_link,0.174942508408,0.0,0.0,-0.000944514267914,-0.000923709482299,0.000210259011393
1576563411895524000,25,1576563411895524000,base_link,0.181256192821,0.0,0.0,0.00153592992525,0.000256891245003,-0.00201631204344
1576563411995676000,26,1576563411995676000,base_link,0.110157554384,0.0,0.0,-0.00186397989128,-0.000271758756233,0.00103662015829
1576563412095879000,27,1576563412095879000,base_link,0.1351309151,0.0,0.0,0.0013353429094,-0.00013949862237,-0.0043489459135
1576563412196090000,28,1576563412196090000,base_link,0.295099700662,0.0,0.0,-0.00030477774712,0.000768663982333,0.00625979291835
1576563412296268000,29,1576563412296268000,base_link,0.197233929555,0.0,0.0,0.000524053677664,-0.000434870993877,-0.0036444666531
1576563412396458000,30,1576563412396458000,base_link,0.265164905048,0.0,0.0,-0.00138481186,-0.000554016643682,0.00611665721126
1576563412496657000,31,1576563412496657000,base_link,0.361299972069,0.0,0.0,0.00157807126155,0.00138088649683,-0.00130049193761
1576563412596880000,32,1576563412596880000,base_link,0.218555514462,0.0,0.0,0.000136754942242,-0.00123958529064,-0.000411620741733
1576563412697054000,33,1576563412697054000,base_link,0.0589114664353,0.0,0.0,-0.00133951606012,0.000595565510364,0.00150294393155
1576563412797297000,34,1576563412797297000,base_link,0.23539419804,0.0,0.0,0.00166115608865,-3.49892475949e-05,-0.00381119153808
1576563412897472000,35,1576563412897472000,base_link,0.293109297156,0.0,0.0,-0.000720542388793,-0.000157851095184,0.00312646511186
1576563412997656000,36,1576563412997656000,base_link,0.254979028721,0.0,0.0,-0.00093595287073,0.000587414402601,-0.0013737377168
1576563413097850000,37,1576563413097850000,base_link,0.0583837879412,0.0,0.0,0.000221724165176,-0.00108094232715,-0.000917278279509
1576563413198062000,38,1576563413198062000,base_link,0.113821550574,0.0,0.0,0.000700069108311,0.00140417188231,-0.000142083603011
1576563413298228000,39,1576563413298228000,base_link,0.0829584014917,0.0,0.0,-0.000252338432223,-0.00023146858932,-0.00252803558076
1576563413398435000,40,1576563413398435000,base_link,0.233735923572,0.0,0.0,0.000124288929533,-0.000601602076271,0.00348519820927
1576563413498631000,41,1576563413498631000,base_link,0.0236023807939,0.0,0.0,4.94156654264e-05,0.000265927663837,0.000212036790825
1576563413598818000,42,1576563413598818000,base_link,0.147451835221,0.0,0.0,-1.74995191901e-05,-0.000311145230393,-0.00028988369494
1576563413699004000,43,1576563413699004000,base_link,0.123185553461,0.0,0.0,-0.000787753835098,6.44822193352e-05,0.00112207877703
1576563413799244000,44,1576563413799244000,base_link,0.145249250539,0.0,0.0,0.000944879329462,5.36291449717e-05,-0.00316873015972
1576563413899432000,45,1576563413899432000,base_link,0.0392464402122,0.0,0.0,-0.000396426900647,-0.000823406352857,0.00196661000592
1576563413999608000,46,1576563413999608000,base_link,0.175007981451,0.0,0.0,-0.000641271796242,0.000889330181298,-0.00256564281291
1576563414099812000,47,1576563414099812000,base_link,0.235375999797,0.0,0.0,-0.000451054889405,-0.000700650797864,0.00203055866498
1576563414199993000,48,1576563414199993000,base_link,0.119827100252,0.0,0.0,0.00154787405137,0.00113366897694,-0.000146547869288
1576563414300220000,49,1576563414300220000,base_link,0.0403995996631,0.0,0.0,1.40660562551e-05,-0.000209350710117,-0.00441361002411
1576563414400395000,50,1576563414400395000,base_link,0.209867070812,0.0,0.0,-0.000644107056933,-0.000572080751006,0.00633649982461
1576563414500594000,51,1576563414500594000,base_link,0.219140880927,0.0,0.0,0.00176874328944,0.000312118281868,-0.00106992372241
1576563414600779000,52,1576563414600779000,base_link,0.137210367277,0.0,0.0,-0.00193853550029,-0.000292802424841,-0.0017338455246
1576563414700971000,53,1576563414700971000,base_link,0.267910647455,0.0,0.0,0.000915688423827,0.00164945059974,0.000726865825128
1576563414801219000,54,1576563414801219000,base_link,0.22872505469,0.0,0.0,-0.000298865549168,-0.00146083623332,-0.00377732747575
1576563414901424000,55,1576563414901424000,base_link,0.163811487574,0.0,0.0,8.24619082802e-05,-0.000229867351819,0.00536473578632
1576563415001575000,56,1576563415001575000,base_link,0.339720812478,0.0,0.0,-0.000716606992099,0.00148063335389,-0.00217487920482
1576563415101817000,57,1576563415101817000,base_link,0.277966875817,0.0,0.0,-0.000221988506466,-0.00172741312006,0.00118705531744
1576563415201980000,58,1576563415201980000,base_link,0.219604318402,0.0,0.0,0.000690039151638,-2.42104715882e-05,-0.00269187254185
1576563415302192000,59,1576563415302192000,base_link,0.217400765357,0.0,0.0,0.000147609386642,0.000801074953693,0.00187796264761
1576563415402377000,60,1576563415402377000,base_link,0.220117491062,0.0,0.0,-0.000481803713118,3.29658730358e-05,-3.85486393362e-05
1576563415502587000,61,1576563415502587000,base_link,0.0919265758501,0.0,0.0,0.00168911493734,0.00128207146292,0.00116162624072
1576563415602784000,62,1576563415602784000,base_link,0.184109840811,0.0,0.0,-0.000578738948515,-0.00119979180326,-0.00055227485129
1576563415703002000,63,1576563415703002000,base_link,0.116387565595,0.0,0.0,-3.09059758946e-05,0.00013840309735,0.00101142255048
1576563415803157000,64,1576563415803157000,base_link,0.14568245648,0.0,0.0,-0.00070727194446,0.000381177301574,-0.00195209764897
1576563415903382000,65,1576563415903382000,base_link,0.132160919462,0.0,0.0,0.000277634191663,-0.00156098198028,0.00127267769621
1576563416003569000,66,1576563416003569000,base_link,0.0580352581986,0.0,0.0,-0.000209450661609,0.00131061782644,-0.00192174070063
1576563416103754000,67,1576563416103754000,base_link,0.0418223773225,0.0,0.0,4.02035423544e-05,0.000259541554432,-0.000287853941906
1576563416203923000,68,1576563416203923000,base_link,0.251498943654,0.0,0.0,-0.000352210629748,-0.00168223666227,0.00410196683039
1576563416304147000,69,1576563416304147000,base_link,0.221194490754,0.0,0.0,0.000231301019929,0.00105209408134,-0.00394938264357
1576563416404322000,70,1576563416404322000,base_link,0.109175571627,0.0,0.0,-0.000560478339199,-0.00157738549769,0.000380830091579
1576563416504553000,71,1576563416504553000,base_link,0.178155196479,0.0,0.0,0.000824623381517,0.00119405744365,0.00239085290018
1576563416604736000,72,1576563416604736000,base_link,0.221026735482,0.0,0.0,-0.000494982319285,-0.00113077281901,-0.00244182254069
1576563416704951000,73,1576563416704951000,base_link,0.150292357284,0.0,0.0,-0.000172296795369,0.00151903284654,0.00488383941093
1576563416805095000,74,1576563416805095000,base_link,0.221058000775,0.0,0.0,0.00109270144245,0.000229462654149,-0.00317595780711
1576563416905299000,75,1576563416905299000,base_link,0.08894705938,0.0,0.0,-0.00147310461317,0.000137084396929,-0.00230292627184
1576563417005523000,76,1576563417005523000,base_link,0.140127776245,0.0,0.0,-0.000224887405526,-0.0011526194477,0.000825171787084
1576563417105700000,77,1576563417105700000,base_link,0.0846881932053,0.0,0.0,0.000539070254714,0.000507519735983,0.00288871255478
1576563417205895000,78,1576563417205895000,base_link,0.0122742015182,0.0,0.0,-1.5951628606e-05,0.000256286549965,0.000302790657567
1576563417306087000,79,1576563417306087000,base_link,0.23651158062,0.0,0.0,0.00116945384454,0.000268629427944,-0.000333809769022
1576563417406278000,80,1576563417406278000,base_link,0.136433342395,0.0,0.0,0.000342109276446,0.00093345582207,-0.00442926253001
1576563417506484000,81,1576563417506484000,base_link,0.20712470656,0.0,0.0,-0.00140839784583,-0.00100070937243,0.00224957692897
1576563417606684000,82,1576563417606684000,base_link,0.197134134264,0.0,0.0,0.000216045141602,-0.000621486433963,-0.00214095936244
1576563417706907000,83,1576563417706907000,base_link,0.21021563459,0.0,0.0,0.00105153885016,-0.000237134826633,0.00432027164527
1576563417807065000,84,1576563417807065000,base_link,0.069261585317,0.0,0.0,-0.00087633247407,0.00119609813076,-0.00135922125652
1576563417907264000,85,1576563417907264000,base_link,0.261197786407,0.0,0.0,-5.25438273194e-05,-0.00115281940359,-0.00255241239038
1576563418007447000,86,1576563418007447000,base_link,0.214528578345,0.0,0.0,-0.000625403631834,0.000342960762958,0.00567470144928
1576563418107676000,87,1576563418107676000,base_link,0.146403649987,0.0,0.0,-0.000189038621018,-0.000805171786689,-0.0049195248831
1576563418207855000,88,1576563418207855000,base_link,0.249722913289,0.0,0.0,0.000596810004625,0.000869869550373,0.00129266983657
1576563418308050000,89,1576563418308050000,base_link,0.0259949857471,0.0,0.0,0.000110808974085,-0.000761615889203,0.000328875640451
1576563418408287000,90,1576563418408287000,base_link,0.113190212124,0.0,0.0,-0.0011916602871,0.00070500004667,-0.00200849002172
1576563418508446000,91,1576563418508446000,base_link,0.123573186767,0.0,0.0,0.000866001954429,-0.000766593955978,-0.0003423645813
1576563418608634000,92,1576563418608634000,base_link,0.184030518092,0.0,0.0,0.000251353375671,0.000238020962037,0.00457405415344
1576563418708867000,93,1576563418708867000,base_link,0.258237046899,0.0,0.0,2.28419653362e-05,0.000572212759915,-0.00603743516591
1576563418809045000,94,1576563418809045000,base_link,0.234839242522,0.0,0.0,-8.83137905009e-05,0.000659262263256,0.00312774022554
1576563418909254000,95,1576563418909254000,base_link,0.107070636998,0.0,0.0,0.000100376822932,-0.00121617554876,-0.00314815031307
1576563419009397000,96,1576563419009397000,base_link,0.31199103303,0.0,0.0,0.000616729062573,0.00110087367097,0.00778731869441
1576563419109618000,97,1576563419109618000,base_link,0.426883531538,0.0,0.0,0.000715561286138,-0.000360899852357,-0.00240392177139
1576563419209833000,98,1576563419209833000,base_link,0.267446238512,0.0,0.0,-0.000702015684316,0.00052704929723,-0.00231137101737
1576563419309986000,99,1576563419309986000,base_link,0.109385454401,0.0,0.0,-0.00025029119549,-0.00043079312967,0.00514436092851
1576563419410233000,100,1576563419410233000,base_link,0.203105024622,0.0,0.0,0.000281813714064,1.19453216788e-05,-0.00155272584532
1576563419510411000,101,1576563419510411000,base_link,0.32905556283,0.0,0.0,-0.000858664765113,-0.000925888904914,-0.00698692593168
1576563419610631000,102,1576563419610631000,base_link,0.219667980552,0.0,0.0,0.000447650912482,0.000114139305682,0.00779018175442
1576563419710801000,103,1576563419710801000,base_link,0.248955812516,0.0,0.0,-0.000627230785478,0.00080120716841,-0.00282818758236
1576563419810977000,104,1576563419810977000,base_link,0.208375831873,0.0,0.0,-0.00167008983413,-0.00296321575204,-0.000482914404795
1576563419911262000,105,1576563419911262000,base_link,0.133985417411,0.0,0.0,0.00030206428884,-0.00650736039281,-0.000470540800781
1576563420011390000,106,1576563420011390000,base_link,0.109745090596,0.0,0.0,-0.00480084460439,-0.0149257857805,0.00258031009645
1576563420111584000,107,1576563420111584000,base_link,0.452698730257,0.0,0.0,-0.000422166234554,-0.016162941677,0.00219645270085
1576563420211786000,108,1576563420211786000,base_link,0.147606006885,0.0,0.0,0.00211932280148,-0.00403221119312,-0.0022282114609
1576563420311990000,109,1576563420311990000,base_link,0.524043201698,0.0,0.0,0.00301404895008,0.00304983763685,0.00746859799902
1576563420412209000,110,1576563420412209000,base_link,0.18200376118,0.0,0.0,0.00193492940012,-0.00445637071186,-0.00481462974852
1576563420512359000,111,1576563420512359000,base_link,0.570746980811,0.0,0.0,0.0023259120718,-0.0146795798618,0.0111948458069
1576563420612553000,112,1576563420612553000,base_link,0.341305206696,0.0,0.0,0.00443289514283,-0.0260079027174,-0.000260446385663
1576563420712746000,113,1576563420712746000,base_link,0.790494176446,0.0,0.0,-0.0020624723143,-0.0443120128615,0.00520233504015
1576563420812982000,114,1576563420812982000,base_link,0.71439004426,0.0,0.0,0.0046782719457,-0.0296962525528,0.0111106750464
1576563420913153000,115,1576563420913153000,base_link,1.01924803131,0.0,0.0,0.00413485326277,-0.0240901220306,0.0151529242018
1576563421013371000,116,1576563421013371000,base_link,1.2455191268,0.0,0.0,0.00734685410326,-0.0174084288971,0.0183075740765
1576563421113530000,117,1576563421113530000,base_link,1.79971122448,0.0,0.0,0.0053205576646,-0.020577414285,0.0272255936911
1576563421213733000,118,1576563421213733000,base_link,2.32932027859,0.0,0.0,0.00244647901699,-0.00775511336969,0.0326225870014
1576563421313960000,119,1576563421313960000,base_link,1.95464899547,0.0,0.0,-0.00245312413144,-0.00773999226972,0.0150619371453
1576563421414164000,120,1576563421414164000,base_link,3.07952404873,0.0,0.0,0.001894429152,-0.00900625104588,0.0369833665893
1576563421514328000,121,1576563421514328000,base_link,2.98216766291,0.0,0.0,-0.00490173771812,-0.00645825991693,0.024552483548
1576563421614514000,122,1576563421614514000,base_link,3.76443907661,0.0,0.0,0.000413958923924,-0.00450764016885,0.0260027891874
1576563421714764000,123,1576563421714764000,base_link,3.69896916223,0.0,0.0,0.00156577979459,0.00307396372586,0.0150526612556
1576563421814926000,124,1576563421814926000,base_link,4.32263228712,0.0,0.0,0.00451847569566,-0.00374882467232,0.0227913163494
1576563421915137000,125,1576563421915137000,base_link,5.32485003136,0.0,0.0,-0.000278634922049,-0.0048889690879,0.0213582720242
1576563422015322000,126,1576563422015322000,base_link,5.06810250914,0.0,0.0,-0.00427274464881,-0.00220669563682,0.0153036841497
1576563422115509000,127,1576563422115509000,base_link,5.26521863404,0.0,0.0,-0.00852963384215,-0.00223837686035,0.0110539100991
1576563422215701000,128,1576563422215701000,base_link,5.80031542754,0.0,0.0,-0.0059290148292,-0.00283472474584,0.0115091652997
1576563422315881000,129,1576563422315881000,base_link,5.96917110365,0.0,0.0,-0.00016465331699,-0.0145214038551,0.0150539924469
1576563422416096000,130,1576563422416096000,base_link,7.0377791236,0.0,0.0,0.00441176201373,-0.00922480089454,-0.00982317017895
1576563422516303000,131,1576563422516303000,base_link,7.4226939812,0.0,0.0,0.00613608731213,0.00208068263183,0.00627240722122
1576563422616566000,132,1576563422616566000,base_link,7.19000703614,0.0,0.0,-0.0088854511427,-0.00685654254781,-0.00426807053347
1576563422716691000,133,1576563422716691000,base_link,7.90240272224,0.0,0.0,-0.00167064856326,0.00136585632997,0.000471831997298
1576563422816867000,134,1576563422816867000,base_link,8.45656967046,0.0,0.0,0.00238176541005,0.0107799386879,-0.00789702624462
1576563422917081000,135,1576563422917081000,base_link,8.79549600154,0.0,0.0,-0.001768433855,0.00683738178469,0.00859324135175
1576563423017277000,136,1576563423017277000,base_link,8.63722023668,0.0,0.0,0.00481915187984,0.000568883917975,0.000789952691689
1576563423117474000,137,1576563423117474000,base_link,9.50174785279,0.0,0.0,0.00280411832035,0.00555353490433,0.00133402982335
1576563423217655000,138,1576563423217655000,base_link,9.86193806143,0.0,0.0,-0.00173142953383,0.0112269863104,-0.00253940522448
1576563423317891000,139,1576563423317891000,base_link,9.74396814441,0.0,0.0,0.0171569080261,0.0116607156596,-0.00218439719917
1576563423418047000,140,1576563423418047000,base_link,10.7743870652,0.0,0.0,0.00927238088302,0.00962696495392,0.0113391102838
1576563423518256000,141,1576563423518256000,base_link,10.3275117539,0.0,0.0,0.0133105022042,0.00542994883289,-0.0167845880774
1576563423618432000,142,1576563423618432000,base_link,11.4658113192,0.0,0.0,0.00892643657584,0.00628256199013,0.0284446633029
1576563423718633000,143,1576563423718633000,base_link,10.860668042,0.0,0.0,-0.00337296686168,0.00442071154859,-0.0020882922436
1576563423818851000,144,1576563423818851000,base_link,11.9414289037,0.0,0.0,-0.00525632153261,0.0119681659142,-0.00132935556459
1576563423919051000,145,1576563423919051000,base_link,11.2479588334,0.0,0.0,-0.00330330167588,0.018858474606,0.00512692432691
1576563424019244000,146,1576563424019244000,base_link,12.7281596154,0.0,0.0,-0.0102503472331,0.0149686125815,0.0232194487988
1576563424119448000,147,1576563424119448000,base_link,11.783385515,0.0,0.0,0.000978057768893,-0.00987461914887,-0.0109223957165
1576563424219633000,148,1576563424219633000,base_link,12.1065665721,0.0,0.0,-0.0114821772297,-0.0142989277029,-0.0111455075205
1576563424319806000,149,1576563424319806000,base_link,13.7147668515,0.0,0.0,0.00579834069804,0.00319480002178,0.0367506470486
1576563424420011000,150,1576563424420011000,base_link,12.2910255449,0.0,0.0,-0.00964317228023,0.0411988991313,-0.00669426927135
1576563424520227000,151,1576563424520227000,base_link,13.0475364225,0.0,0.0,-0.00986080714257,0.0513018858757,-0.00811224096813
1576563424620416000,152,1576563424620416000,base_link,12.8999788376,0.0,0.0,0.00131774909182,0.0484298692913,-0.0167428849926
1576563424720606000,153,1576563424720606000,base_link,13.4627198483,0.0,0.0,0.00354575246285,0.0392595227684,0.00455574239647
1576563424820802000,154,1576563424820802000,base_link,13.7196279747,0.0,0.0,0.0152496535368,0.00495828220315,0.00424654494135
1576563424921012000,155,1576563424921012000,base_link,12.8752342146,0.0,0.0,0.00330667868459,-0.00329193825276,-0.0162765775625
1576563425021199000,156,1576563425021199000,base_link,13.2696372918,0.0,0.0,0.00348132474746,0.00969098381345,0.00397480331082
1576563425121399000,157,1576563425121399000,base_link,13.3139557606,0.0,0.0,-0.000446186025507,0.0168720857016,0.00535661861064
1576563425221576000,158,1576563425221576000,base_link,13.3439033978,0.0,0.0,-0.00210564733243,-0.00584339792748,-0.00758110897144
1576563425321801000,159,1576563425321801000,base_link,12.9158980096,0.0,0.0,-0.00445358186405,-0.00752776053489,0.024915624202
1576563425421990000,160,1576563425421990000,base_link,12.9986102643,0.0,0.0,0.0062653477965,0.0101749673507,-0.00882793306057
1576563425522170000,161,1576563425522170000,base_link,13.3181046892,0.0,0.0,-0.0085142939236,0.00490127055947,0.00163654139937
1576563425622360000,162,1576563425622360000,base_link,12.9074119834,0.0,0.0,-0.00296483708359,-0.00449162190874,0.0181432034883
1576563425722575000,163,1576563425722575000,base_link,13.0161234227,0.0,0.0,0.00749673686983,-0.00433011427574,0.000902854322013
1576563425822751000,164,1576563425822751000,base_link,12.3864483852,0.0,0.0,-0.00504364276396,0.000950950733961,0.0185919681909
1576563425922997000,165,1576563425922997000,base_link,13.0981971764,0.0,0.0,-0.00377231416598,0.00798700773451,-0.0188131840916
1576563426023189000,166,1576563426023189000,base_link,12.8509873079,0.0,0.0,-0.00273883818618,-0.000149810049473,0.0195013582936
1576563426123338000,167,1576563426123338000,base_link,12.9737636821,0.0,0.0,-0.0158305409599,-0.00613658606639,-0.00511320328658
1576563426223567000,168,1576563426223567000,base_link,12.176130842,0.0,0.0,0.0061403677502,-0.00721963633768,0.0187752205902
1576563426323738000,169,1576563426323738000,base_link,12.9803923391,0.0,0.0,-0.00671423255286,-0.00673094775344,-0.0269450808996
1576563426423943000,170,1576563426423943000,base_link,12.6752877841,0.0,0.0,-0.00827270598615,0.0120232485001,-0.01517603561
1576563426524121000,171,1576563426524121000,base_link,12.4224922334,0.0,0.0,0.0022115919132,0.00671617432388,0.00997249781415
1576563426624316000,172,1576563426624316000,base_link,13.0964716717,0.0,0.0,0.00280619645146,-0.0160623943005,-0.0335817016514
1576563426724524000,173,1576563426724524000,base_link,11.9976549225,0.0,0.0,0.00250273300415,-0.0122032987946,0.00860887315872
1576563426824759000,174,1576563426824759000,base_link,12.5542817079,0.0,0.0,0.00439968097567,0.0255226179667,-0.0100968358277
1576563426924926000,175,1576563426924926000,base_link,13.1864730007,0.0,0.0,0.00730124227921,0.0261418156781,-0.0063690385915
1576563427025123000,176,1576563427025123000,base_link,12.2254329426,0.0,0.0,0.000346052459862,-0.000162115888591,-0.0235810461951
1576563427125332000,177,1576563427125332000,base_link,12.6795179444,0.0,0.0,-0.0021488099821,-0.0163738456161,0.0203363052555
1576563427225525000,178,1576563427225525000,base_link,11.9892963361,0.0,0.0,0.0198947073435,-0.0145709791142,-0.0137752259786
1576563427325716000,179,1576563427325716000,base_link,13.2644428058,0.0,0.0,0.00990575618888,-0.0110181905822,0.000410977725398
1576563427425904000,180,1576563427425904000,base_link,11.9629935199,0.0,0.0,0.0134805967301,0.00492113937125,0.00542592215783
1576563427526113000,181,1576563427526113000,base_link,12.6831974998,0.0,0.0,-0.0170194008537,0.0146030293402,-0.0095066948511
1576563427626285000,182,1576563427626285000,base_link,11.6508728029,0.0,0.0,-0.0192049249301,0.0188523263469,0.0138943037268
1576563427726483000,183,1576563427726483000,base_link,12.0739196316,0.0,0.0,-0.0131351910697,0.0115662125069,0.0120303423226
1576563427826674000,184,1576563427826674000,base_link,12.9771863584,0.0,0.0,0.00154040413595,-0.00839998908516,-0.00883491181313
1576563427926945000,185,1576563427926945000,base_link,10.9795123707,0.0,0.0,-0.00445745026962,-0.0115445316809,0.0193749250545
1576563428027067000,186,1576563428027067000,base_link,12.3988184998,0.0,0.0,0.0162574010734,-0.018878487952,-0.00373164128283
1576563428127278000,187,1576563428127278000,base_link,11.6732468732,0.0,0.0,0.00404015759116,0.0020374683816,0.00223012896747
1576563428227497000,188,1576563428227497000,base_link,12.0269800227,0.0,0.0,-0.00610418480278,0.0135081736372,0.00620640756243
1576563428327673000,189,1576563428327673000,base_link,12.0755524391,0.0,0.0,0.00530803864617,0.0343199632577,0.00775501067826
1576563428427855000,190,1576563428427855000,base_link,11.2911874098,0.0,0.0,-0.0105523877802,0.0290916009113,-0.0242673032176
1576563428528053000,191,1576563428528053000,base_link,11.5426987871,0.0,0.0,-0.0113220591873,0.0148400023939,0.0314236847815
1576563428628265000,192,1576563428628265000,base_link,12.1335894663,0.0,0.0,-0.00321143330219,-0.00763237690498,-0.0112515652622
1576563428728511000,193,1576563428728511000,base_link,10.8520549572,0.0,0.0,-0.0049941606921,-0.0165184970406,0.0154357156938
1576563428828716000,194,1576563428828716000,base_link,11.2030135237,0.0,0.0,-0.000221423385641,-0.0178662412776,0.00409127215372
1576563428928857000,195,1576563428928857000,base_link,12.0281342582,0.0,0.0,-0.000110912406971,-0.0154078966947,0.0103707113257
1576563429029106000,196,1576563429029106000,base_link,10.6912298783,0.0,0.0,-0.00225813203134,0.000997083802002,-0.000263444027146
1576563429129246000,197,1576563429129246000,base_link,10.9566884829,0.0,0.0,0.00111762478646,0.00602916610094,0.0175912400431
1576563429229459000,198,1576563429229459000,base_link,10.7020612906,0.0,0.0,0.00710081926954,0.0212510847442,-0.0151407614205
1576563429329622000,199,1576563429329622000,base_link,11.1133778634,0.0,0.0,-0.00931277335817,0.0164334966813,0.00486781969285
1576563429429815000,200,1576563429429815000,base_link,11.2046912757,0.0,0.0,0.00639802789171,0.00595431293585,-0.00628166714455
1576563429530064000,201,1576563429530064000,base_link,10.604017859,0.0,0.0,0.00274889406682,-0.0123249441568,0.016383250465
1576563429630287000,202,1576563429630287000,base_link,9.7226106579,0.0,0.0,-0.00720752704479,0.00265536107627,-0.0027425570513
1576563429730440000,203,1576563429730440000,base_link,10.9577046636,0.0,0.0,-0.00194037012307,0.00563516154392,0.0117018670812
1576563429830612000,204,1576563429830612000,base_link,9.95165136436,0.0,0.0,-0.00247731451798,0.00559567093847,0.00584606774319
1576563429930884000,205,1576563429930884000,base_link,10.1477988434,0.0,0.0,0.00105994761328,-0.00304466226105,0.000973311916857
1576563430031060000,206,1576563430031060000,base_link,10.0191656272,0.0,0.0,7.94951521053e-05,-0.0032721677293,-0.00501443179069
1576563430131245000,207,1576563430131245000,base_link,10.0294368591,0.0,0.0,-0.00167763625808,-0.00684380351459,0.00521716529673
1576563430231446000,208,1576563430231446000,base_link,9.79189019933,0.0,0.0,0.00490018296665,-0.00986441974228,0.00989968720564
1576563430331597000,209,1576563430331597000,base_link,9.83457787042,0.0,0.0,-0.00501043317033,-0.00238597161919,-0.00363431449917
1576563430431844000,210,1576563430431844000,base_link,9.54328676019,0.0,0.0,-0.0131353274218,-0.00131711427273,-0.00228953996975
1576563430531982000,211,1576563430531982000,base_link,9.22418958595,0.0,0.0,-0.0144906092027,0.00335758439712,0.00571413705065
1576563430632214000,212,1576563430632214000,base_link,9.37074658729,0.0,0.0,-0.00100696886143,0.0152746065307,-0.00190914665543
1576563430732369000,213,1576563430732369000,base_link,9.2473662185,0.0,0.0,0.0035069063863,0.00534197396527,0.00672611336534
1576563430832581000,214,1576563430832581000,base_link,9.39924526735,0.0,0.0,-0.0160687067109,-0.00413999725373,-0.0169630502241
1576563430932787000,215,1576563430932787000,base_link,9.10971893354,0.0,0.0,0.000843860267256,-0.0129797574854,0.0323690182189
1576563431032955000,216,1576563431032955000,base_link,9.18242233653,0.0,0.0,0.00242723691255,-0.0159056168036,-0.0025988797447
1576563431133151000,217,1576563431133151000,base_link,8.86740354134,0.0,0.0,-0.0057927512508,-0.000209225957773,0.00602058890788
1576563431233349000,218,1576563431233349000,base_link,8.71898761639,0.0,0.0,-0.0108409538899,0.00899783440893,0.0119589748911
1576563431333555000,219,1576563431333555000,base_link,8.90942461324,0.0,0.0,-0.00563892578667,0.0121403184988,0.00674697522492
1576563431433770000,220,1576563431433770000,base_link,8.55252282362,0.0,0.0,-0.0175800341224,0.00990413105687,0.0158498120629
1576563431533944000,221,1576563431533944000,base_link,8.14021664258,0.0,0.0,-0.000394337648894,0.00240458626462,0.0235960356448
1576563431634145000,222,1576563431634145000,base_link,8.95416876787,0.0,0.0,-0.000657939359222,0.00356807240883,-0.00335838820842
1576563431734375000,223,1576563431734375000,base_link,8.02558864826,0.0,0.0,-0.0169493395775,0.0096988668742,0.0159747533337
1576563431834520000,224,1576563431834520000,base_link,8.19685950881,0.0,0.0,-0.0096980210603,0.00838554600393,0.00929241251166
1576563431934749000,225,1576563431934749000,base_link,8.23853092443,0.0,0.0,-0.00523230827234,0.00624484877826,0.000909793367812
1576563432034939000,226,1576563432034939000,base_link,8.14967841261,0.0,0.0,-0.00834539235909,-0.00061222099241,-0.0167968357167
1576563432135139000,227,1576563432135139000,base_link,7.39631242556,0.0,0.0,-0.0207527087876,-0.0102493830872,-0.00353167996073
1576563432235332000,228,1576563432235332000,base_link,7.93611067481,0.0,0.0,-0.0164791418542,-0.0133829416924,-0.028815419489
1576563432335561000,229,1576563432335561000,base_link,7.30753586663,0.0,0.0,-0.0182763673918,-0.0183599395777,-0.0301612846714
1576563432435728000,230,1576563432435728000,base_link,7.32676404999,0.0,0.0,-0.0263737779913,0.00118547831171,-0.0614908998977
1576563432536042000,231,1576563432536042000,base_link,6.47558680824,0.0,0.0,-0.0142026368032,0.0173585554111,-0.065182995985
1576563432636137000,232,1576563432636137000,base_link,7.16617378985,0.0,0.0,-0.0163507280486,0.0104120220638,-0.124305220094
1576563432736298000,233,1576563432736298000,base_link,6.8605118396,0.0,0.0,-0.0088235568615,0.00317394596593,-0.0951042980961
1576563432836506000,234,1576563432836506000,base_link,6.9132547533,0.0,0.0,-0.00702160225496,-0.00854861258697,-0.156056598746
1576563432936716000,235,1576563432936716000,base_link,6.68314836016,0.0,0.0,-0.00243554669773,-0.0194561158813,-0.183569052674
1576563433036880000,236,1576563433036880000,base_link,5.8874406304,0.0,0.0,0.00858428172999,-0.0148300456031,-0.18595342377
1576563433137108000,237,1576563433137108000,base_link,7.45335826524,0.0,0.0,0.00428375202065,-0.0210477269179,-0.223945630936
1576563433237307000,238,1576563433237307000,base_link,5.26941055973,0.0,0.0,0.0133602114923,-0.00347574818897,-0.251511952549
1576563433337492000,239,1576563433337492000,base_link,5.68377796677,0.0,0.0,0.0123271575399,0.00406006280118,-0.273061470309
1576563433437712000,240,1576563433437712000,base_link,5.37057044653,0.0,0.0,0.0201391562523,-0.00799866875287,-0.294484857451
1576563433537855000,241,1576563433537855000,base_link,6.03441855856,0.0,0.0,0.0314280709689,-0.00273090043265,-0.293891801783
1576563433638100000,242,1576563433638100000,base_link,4.50633018179,0.0,0.0,0.0447297670858,-0.0160159226129,-0.336363077922
1576563433738270000,243,1576563433738270000,base_link,5.12509046086,0.0,0.0,0.0351953462715,-0.011460764725,-0.345060823916
1576563433838462000,244,1576563433838462000,base_link,4.53331060808,0.0,0.0,0.0236784915031,-0.00136285536404,-0.35876519043
1576563433938723000,245,1576563433938723000,base_link,5.03938802935,0.0,0.0,0.00375074627232,-0.00115054036031,-0.378637343074
1576563434038855000,246,1576563434038855000,base_link,4.64805200597,0.0,0.0,-0.000720357001222,0.00251243410083,-0.36354475962
1576563434139101000,247,1576563434139101000,base_link,4.198769168,0.0,0.0,0.0221977708421,0.0187743470462,-0.382704638535
1576563434239226000,248,1576563434239226000,base_link,3.66829811217,0.0,0.0,0.0397070832719,0.010388982993,-0.37969080839
1576563434339432000,249,1576563434339432000,base_link,4.02580192363,0.0,0.0,0.026991642538,-0.0096030394454,-0.394487530448
1576563434439634000,250,1576563434439634000,base_link,4.29323778585,0.0,0.0,-0.00177465992708,-0.0521554103969,-0.413698431538
1576563434539816000,251,1576563434539816000,base_link,3.78840497514,0.0,0.0,-0.040615125319,-0.0491629165991,-0.432577925158
1576563434640037000,252,1576563434640037000,base_link,4.03837263899,0.0,0.0,-0.0705480985896,-0.0362406503901,-0.453119159372
1576563434740231000,253,1576563434740231000,base_link,3.89747125447,0.0,0.0,-0.0590604152484,-0.011929506591,-0.480379158892
1576563434840455000,254,1576563434840455000,base_link,3.1288946103,0.0,0.0,-0.0081933525474,0.00758744887995,-0.464600359197
1576563434940640000,255,1576563434940640000,base_link,3.83798958497,0.0,0.0,0.0383176052071,-0.0119931493582,-0.499791946422
1576563435040826000,256,1576563435040826000,base_link,3.57190757824,0.0,0.0,0.0537093016309,-0.0259878004846,-0.500147831079
1576563435141020000,257,1576563435141020000,base_link,3.66853251732,0.0,0.0,0.02496581884,-0.0436789202329,-0.510709963923
1576563435241297000,258,1576563435241297000,base_link,3.68535419194,0.0,0.0,-0.0134488681653,-0.0270384297985,-0.510010379684
1576563435341464000,259,1576563435341464000,base_link,3.39733918546,0.0,0.0,-0.0383014190215,-0.037006789694,-0.514828730621
1576563435441626000,260,1576563435441626000,base_link,3.67527595874,0.0,0.0,-0.047189099837,-0.0378555730249,-0.485415356111
1576563435541823000,261,1576563435541823000,base_link,3.58998526206,0.0,0.0,-0.00802653177166,-0.0376426556416,-0.487696791927
1576563435642018000,262,1576563435642018000,base_link,3.20577305235,0.0,0.0,0.0574213949364,-0.0427238506038,-0.454511023919
1576563435742202000,263,1576563435742202000,base_link,3.65816088143,0.0,0.0,0.0653204924962,-0.0147277711581,-0.408337976039
1576563435842389000,264,1576563435842389000,base_link,3.61471567392,0.0,0.0,0.0193583141735,-0.0263485932357,-0.42307112836
1576563435942606000,265,1576563435942606000,base_link,3.59710043103,0.0,0.0,-0.0587045934617,-0.05741146154,-0.384835090966
1576563436042769000,266,1576563436042769000,base_link,3.88897478325,0.0,0.0,-0.0492003050127,-0.0500274911313,-0.337805008567
1576563436142995000,267,1576563436142995000,base_link,3.41357097488,0.0,0.0,-0.0384467870361,-0.0337241808921,-0.325741525499
1576563436243195000,268,1576563436243195000,base_link,3.51579868655,0.0,0.0,0.0319516831755,-0.0103918149178,-0.295046410415
1576563436343387000,269,1576563436343387000,base_link,3.46318592991,0.0,0.0,0.0528524265827,-0.0100229901752,-0.271761827153
1576563436443551000,270,1576563436443551000,base_link,3.5208252681,0.0,0.0,0.0388486274395,-0.0137863093962,-0.242324143105
1576563436543785000,271,1576563436543785000,base_link,4.06706095872,0.0,0.0,0.01529683626,-0.021334605098,-0.249756893765
1576563436643958000,272,1576563436643958000,base_link,3.808019992,0.0,0.0,-0.0130032911591,0.00035124665835,-0.212475370763
1576563436744133000,273,1576563436744133000,base_link,4.19768404259,0.0,0.0,-0.0354130366586,0.039436500886,-0.246907006386
1576563436844363000,274,1576563436844363000,base_link,3.80101252324,0.0,0.0,-0.0309703590441,0.0306697527773,-0.193488789717
1576563436944591000,275,1576563436944591000,base_link,4.13024525687,0.0,0.0,0.0243288263879,0.0104888055653,-0.178807442582
1576563437044753000,276,1576563437044753000,base_link,3.95097303736,0.0,0.0,0.0391376394713,-0.0220238263041,-0.148776878093
1576563437144969000,277,1576563437144969000,base_link,4.16061948054,0.0,0.0,0.0343334088843,-0.0144255754267,-0.125187323458
1576563437245135000,278,1576563437245135000,base_link,4.31952118803,0.0,0.0,0.010653186682,-0.0103322241113,-0.119120523626
1576563437345365000,279,1576563437345365000,base_link,4.02922045203,0.0,0.0,-0.00524297631215,-0.00897438771006,-0.0612030896479
1576563437445527000,280,1576563437445527000,base_link,4.61437072543,0.0,0.0,-0.0014830023358,-0.0179956316214,-0.081287344497
1576563437545720000,281,1576563437545720000,base_link,4.67328619552,0.0,0.0,0.000360106065444,-0.00662646932655,-0.0564179787551
1576563437645933000,282,1576563437645933000,base_link,4.95344434178,0.0,0.0,0.00673522701682,-0.00447362282178,-0.0531073160746
1576563437746108000,283,1576563437746108000,base_link,4.61581956618,0.0,0.0,0.00297288478439,-0.00564188660769,-0.0248802430741
1576563437846310000,284,1576563437846310000,base_link,5.12850979871,0.0,0.0,-0.00384454932307,-0.0174681986206,-0.0324689152434
1576563437946515000,285,1576563437946515000,base_link,4.79121858926,0.0,0.0,-0.000667604451056,-0.00476864839778,-0.0230186104772
1576563438046723000,286,1576563438046723000,base_link,5.01590324594,0.0,0.0,0.0173582026792,0.00924262528459,-0.0312647195775
1576563438146890000,287,1576563438146890000,base_link,5.20418819364,0.0,0.0,0.0261358404812,0.0287654695652,0.00189379790527
1576563438247092000,288,1576563438247092000,base_link,6.11555278086,0.0,0.0,-0.00218869978852,-0.0130830401793,-0.0184242458206
1576563438347285000,289,1576563438347285000,base_link,5.09901217766,0.0,0.0,0.0001755808632,0.00617643898357,-2.03411037832e-05
1576563438447472000,290,1576563438447472000,base_link,5.45124307372,0.0,0.0,-0.00170993774698,0.00166067797951,0.00320586073581
1576563438547698000,291,1576563438547698000,base_link,5.4369377951,0.0,0.0,0.0159245929582,0.00992755544221,0.00382627151515
1576563438647883000,292,1576563438647883000,base_link,6.08819071065,0.0,0.0,0.00584752488274,-0.0107581651717,0.000562326022706
1576563438748076000,293,1576563438748076000,base_link,6.28654438049,0.0,0.0,-0.00461774101149,-0.000856521191189,0.0224092844063
1576563438848284000,294,1576563438848284000,base_link,5.68575268333,0.0,0.0,-0.00333664153638,0.0129961049513,0.0156263073649
1576563438948506000,295,1576563438948506000,base_link,5.79238741617,0.0,0.0,-0.00580695279916,0.00812468277916,0.0346380391505
1576563439048687000,296,1576563439048687000,base_link,5.74076551887,0.0,0.0,0.00322557801848,-0.00866892678571,0.0222459462105
1576563439148857000,297,1576563439148857000,base_link,6.78193568519,0.0,0.0,-0.00106960761879,-0.0127105185077,0.0178530743511
1576563439249094000,298,1576563439249094000,base_link,6.87868499312,0.0,0.0,-0.00481724845093,0.00777977414049,0.0185771910724
1576563439349277000,299,1576563439349277000,base_link,5.69227635378,0.0,0.0,0.0025326241803,0.0193500062516,0.0175907819867
1576563439449471000,300,1576563439449471000,base_link,6.55243163582,0.0,0.0,-0.00733411780686,0.0121043216112,0.0325365679331
1576563439549642000,301,1576563439549642000,base_link,6.54611288174,0.0,0.0,-0.00573153004913,0.0238310561844,0.0153270518151
1576563439649828000,302,1576563439649828000,base_link,6.34079113325,0.0,0.0,-0.0148828048723,0.0221146346108,0.0131711743621
1576563439750030000,303,1576563439750030000,base_link,6.6318278561,0.0,0.0,-0.01270199747,0.00479717037066,0.00892099117697
1576563439850238000,304,1576563439850238000,base_link,6.25199534917,0.0,0.0,0.00731945835,0.00612528759429,0.0220684215707
1576563439950467000,305,1576563439950467000,base_link,6.19048317492,0.0,0.0,-0.0011883411901,-0.00483231201613,0.00131928973594
1576563440050626000,306,1576563440050626000,base_link,7.10838478142,0.0,0.0,-0.0196380601847,-0.01851921208,-0.0119186715551
1576563440150824000,307,1576563440150824000,base_link,6.45990323485,0.0,0.0,-0.0125872717124,0.00335352506238,-0.0377239237131
1576563440251058000,308,1576563440251058000,base_link,6.22177532138,0.0,0.0,-0.0130469701778,0.0102332418085,0.0175909193919
1576563440351212000,309,1576563440351212000,base_link,6.17477141613,0.0,0.0,-0.0242524133145,0.00386166648235,-0.0465180555161
1576563440451413000,310,1576563440451413000,base_link,6.17515306113,0.0,0.0,-0.0173780653378,0.0173757333078,-0.0732413602725
1576563440551598000,311,1576563440551598000,base_link,6.05585717237,0.0,0.0,-0.0325491916251,0.00188275924565,-0.0996296121275
1576563440651810000,312,1576563440651810000,base_link,6.81340962951,0.0,0.0,-0.00607122279577,-0.0098093608741,-0.1356229971
1576563440751996000,313,1576563440751996000,base_link,6.22378787646,0.0,0.0,0.0131562673356,-0.0198160054183,-0.136747075382
1576563440852213000,314,1576563440852213000,base_link,5.25888500851,0.0,0.0,0.0205023480951,-0.0105798319582,-0.164060482768
1576563440952407000,315,1576563440952407000,base_link,6.74012519398,0.0,0.0,0.001862033359,-0.0183259920016,-0.211809570358
1576563441052580000,316,1576563441052580000,base_link,5.95143564833,0.0,0.0,0.00399591587465,0.00259736303866,-0.223958603373
1576563441152800000,317,1576563441152800000,base_link,5.57064447068,0.0,0.0,-0.000613039170189,0.00651730690477,-0.263604308217
1576563441253037000,318,1576563441253037000,base_link,5.80580484396,0.0,0.0,0.0454761352768,-0.00229385296137,-0.267650806055
1576563441353172000,319,1576563441353172000,base_link,6.1097008649,0.0,0.0,0.0669305578182,-0.00637099039893,-0.274410902402
1576563441453365000,320,1576563441453365000,base_link,5.64812498832,0.0,0.0,0.0690327158786,-0.010723842468,-0.330969029651
1576563441553575000,321,1576563441553575000,base_link,5.29773240889,0.0,0.0,0.047627718656,-0.00221048636457,-0.273537099243
1576563441653798000,322,1576563441653798000,base_link,6.6365853045,0.0,0.0,0.00957539896974,-0.000597432392309,-0.389395665933
1576563441753956000,323,1576563441753956000,base_link,5.44271330902,0.0,0.0,0.00585893580246,0.00225873798183,-0.377503847209
1576563441854158000,324,1576563441854158000,base_link,5.90454336636,0.0,0.0,0.00322691231262,0.00564264549152,-0.395240088133
1576563441954374000,325,1576563441954374000,base_link,4.98220439052,0.0,0.0,0.0463002208381,0.0100748145463,-0.40247173314
1576563442054546000,326,1576563442054546000,base_link,6.07542044654,0.0,0.0,0.0465165435908,-0.00494680186161,-0.42845330328
1576563442154741000,327,1576563442154741000,base_link,5.49698825428,0.0,0.0,0.0202960904216,0.00145096174215,-0.446355419113
1576563442254950000,328,1576563442254950000,base_link,5.38346614639,0.0,0.0,-0.0162224866802,-0.015692992261,-0.476846821517
1576563442355163000,329,1576563442355163000,base_link,5.81223042024,0.0,0.0,-0.0317837349028,-0.023809150771,-0.491308347559
1576563442455331000,330,1576563442455331000,base_link,5.11479181741,0.0,0.0,-0.0154132479335,-0.0151779208013,-0.51300022829
1576563442555541000,331,1576563442555541000,base_link,5.11896054863,0.0,0.0,0.0418667116884,-0.00641516490463,-0.531782307671
1576563442655740000,332,1576563442655740000,base_link,5.03902979178,0.0,0.0,0.0743462906514,-0.0127560429121,-0.526660342616
1576563442755930000,333,1576563442755930000,base_link,5.84862260832,0.0,0.0,0.0344840878231,-0.0140974109473,-0.54029894192
1576563442856122000,334,1576563442856122000,base_link,5.19293786244,0.0,0.0,0.00268463337865,0.018796438248,-0.572869273868
1576563442956397000,335,1576563442956397000,base_link,4.98202961901,0.0,0.0,0.0198191041314,0.0109266729841,-0.527622958518
1576563443056519000,336,1576563443056519000,base_link,5.23566109768,0.0,0.0,0.0572122948877,0.0281516591715,-0.506207019097
1576563443156720000,337,1576563443156720000,base_link,5.01887645532,0.0,0.0,0.0683398941574,0.0215065400778,-0.494934879061
1576563443256930000,338,1576563443256930000,base_link,5.13296765921,0.0,0.0,0.0314347283421,0.006226405897,-0.495469065911
1576563443357107000,339,1576563443357107000,base_link,5.2917044892,0.0,0.0,0.00127427340334,0.0247932575523,-0.475228445769
1576563443457328000,340,1576563443457328000,base_link,5.03817901521,0.0,0.0,-0.00219721177304,0.0180819763984,-0.465651157337
1576563443557490000,341,1576563443557490000,base_link,4.60422244665,0.0,0.0,0.00143699320726,0.0204542113989,-0.396975150452
1576563443657692000,342,1576563443657692000,base_link,5.0594418232,0.0,0.0,0.0193217559133,-0.00947067185773,-0.398053303555
1576563443757884000,343,1576563443757884000,base_link,5.12541905184,0.0,0.0,0.0205906356745,-0.00823600776647,-0.33781730578
1576563443858075000,344,1576563443858075000,base_link,4.78628322742,0.0,0.0,0.0177557902265,-0.00480442014413,-0.32465456388
1576563443958309000,345,1576563443958309000,base_link,4.61469209627,0.0,0.0,-0.00307862498775,0.00794701819771,-0.288275798643
1576563444058475000,346,1576563444058475000,base_link,5.25701022095,0.0,0.0,-0.0244789568699,0.00676866730279,-0.276303688851
1576563444158669000,347,1576563444158669000,base_link,4.90561544714,0.0,0.0,-0.025725906519,0.0119605367779,-0.239552229
1576563444258893000,348,1576563444258893000,base_link,5.13760020066,0.0,0.0,-0.0193881066654,0.0197524525785,-0.220961966501
1576563444359067000,349,1576563444359067000,base_link,4.61532443287,0.0,0.0,-0.00524637918058,0.0226787936882,-0.209928036295
1576563444459272000,350,1576563444459272000,base_link,4.45174852099,0.0,0.0,0.0172913653907,0.0136167623563,-0.182845933902
1576563444559473000,351,1576563444559473000,base_link,5.07258240996,0.0,0.0,0.0088151671322,0.00588567845507,-0.170540907043
1576563444659703000,352,1576563444659703000,base_link,4.87825638216,0.0,0.0,0.00906540097229,-0.00366159085388,-0.158383817673
1576563444759898000,353,1576563444759898000,base_link,4.32196796741,0.0,0.0,-0.00725466228747,-0.00208683043648,-0.133144544907
1576563444860048000,354,1576563444860048000,base_link,4.70645675965,0.0,0.0,-0.0128579374397,0.00749657021263,-0.124167405873
1576563444960305000,355,1576563444960305000,base_link,4.73174770326,0.0,0.0,-0.0173497085217,0.00400786354045,-0.121105768343
1576563445060454000,356,1576563445060454000,base_link,4.25383516156,0.0,0.0,-0.0115420206305,0.00139569445467,-0.111042711712
1576563445160683000,357,1576563445160683000,base_link,5.14271538326,0.0,0.0,0.00769994837525,-0.00776167308603,-0.109725094688
1576563445260883000,358,1576563445260883000,base_link,4.36839860459,0.0,0.0,0.0168021248747,-0.0134702359177,-0.10137473365
1576563445361063000,359,1576563445361063000,base_link,4.49337215601,0.0,0.0,0.0190814639402,-0.0105884472353,-0.0950348618503
1576563445461251000,360,1576563445461251000,base_link,4.86951319229,0.0,0.0,0.00951960587771,0.000725442339112,-0.0863677913558
1576563445561451000,361,1576563445561451000,base_link,4.51223958478,0.0,0.0,-0.00250807153894,0.0168449583517,-0.0642082497585
1576563445661626000,362,1576563445661626000,base_link,4.40623051252,0.0,0.0,-0.00249411171719,0.00885111669073,-0.069647304852
1576563445761818000,363,1576563445761818000,base_link,4.96506699214,0.0,0.0,-0.00244787634583,0.00377098784909,-0.0528116812422
1576563445862029000,364,1576563445862029000,base_link,5.01119956912,0.0,0.0,0.00540870365953,0.00480666099899,-0.0450426402628
1576563445962257000,365,1576563445962257000,base_link,4.55130512819,0.0,0.0,0.00395722158764,0.0111774277208,-0.0364330145587
1576563446062397000,366,1576563446062397000,base_link,4.8515725957,0.0,0.0,0.00970726991646,0.00211580815835,-0.0286643980847
1576563446162604000,367,1576563446162604000,base_link,4.52529493106,0.0,0.0,0.00317412738226,-0.00946056442079,-0.0261968520386
1576563446262810000,368,1576563446262810000,base_link,5.2768341507,0.0,0.0,0.00521056533213,-0.0105893160863,-0.0267463291787
1576563446363002000,369,1576563446363002000,base_link,4.92477237112,0.0,0.0,0.0028809868303,0.00905920057819,-0.0171154660813
1576563446463186000,370,1576563446463186000,base_link,4.55147457536,0.0,0.0,0.00828295150231,0.00553456273033,-0.0162069867994
1576563446563393000,371,1576563446563393000,base_link,4.94908072219,0.0,0.0,0.00438336781056,-0.00549261991018,-0.00771943202357
1576563446663563000,372,1576563446663563000,base_link,4.49527688303,0.0,0.0,-0.00168411691152,-0.00432503055375,-0.00377778456367
1576563446763777000,373,1576563446763777000,base_link,4.7765937393,0.0,0.0,0.00460938102228,0.00236177272132,-0.00604254409691
1576563446863963000,374,1576563446863963000,base_link,5.01060501334,0.0,0.0,0.00906815224962,0.00528611667423,-0.00017553487475
1576563446964199000,375,1576563446964199000,base_link,5.23841371196,0.0,0.0,0.0130256173828,-0.000902697394843,-0.00404344659735
1576563447064362000,376,1576563447064362000,base_link,4.84545790612,0.0,0.0,0.00258325111632,-0.00776968968072,-0.000275164579496
1576563447164557000,377,1576563447164557000,base_link,5.02876397266,0.0,0.0,-0.00500690124321,-0.00943484782837,-0.000631408585009
1576563447264771000,378,1576563447264771000,base_link,4.51084818247,0.0,0.0,-0.00259364119151,-0.000895325263213,-0.00348813714024
1576563447364962000,379,1576563447364962000,base_link,4.96602148146,0.0,0.0,0.00816447077182,0.00392968968661,0.0103717971727
1576563447465203000,380,1576563447465203000,base_link,5.1779619455,0.0,0.0,0.0174129228213,-0.0112298433554,0.00974683788533
1576563447565360000,381,1576563447565360000,base_link,4.7121049558,0.0,0.0,0.0181302870339,-0.0120216232854,0.00694364216537
1576563447665533000,382,1576563447665533000,base_link,5.10072999682,0.0,0.0,0.00166122625437,0.0140006979314,0.00616593540464
1576563447765765000,383,1576563447765765000,base_link,5.15923861241,0.0,0.0,-0.00879664448766,0.0273265586813,0.00918370914609
1576563447866045000,384,1576563447866045000,base_link,4.70129737704,0.0,0.0,-0.0270624395101,0.0182043415892,0.0147942954988
1576563447966164000,385,1576563447966164000,base_link,4.58245421168,0.0,0.0,-0.00778680301503,-0.00651507244592,0.00887430563588
1576563448066320000,386,1576563448066320000,base_link,5.39861345711,0.0,0.0,0.00799118512572,-0.00523057951693,0.00209713100402
1576563448166512000,387,1576563448166512000,base_link,4.96523454541,0.0,0.0,0.0277294578433,-0.000593764757885,0.0432867072987
1576563448266721000,388,1576563448266721000,base_link,5.51754729315,0.0,0.0,0.0133755274853,-0.0175378175486,0.00910040692477
1576563448366950000,389,1576563448366950000,base_link,4.75410654959,0.0,0.0,-0.00757754463459,-0.0159129941213,0.00270798710641
1576563448467101000,390,1576563448467101000,base_link,4.67722039453,0.0,0.0,-0.0198319565161,0.00161676016608,-0.00507297802472
1576563448567316000,391,1576563448567316000,base_link,4.77840362164,0.0,0.0,-0.0131227350904,0.0113515150378,0.0185687314437
1576563448667500000,392,1576563448667500000,base_link,5.13864482535,0.0,0.0,0.00695428414847,0.0117868219531,0.0142886059346
1576563448767698000,393,1576563448767698000,base_link,5.13858022958,0.0,0.0,0.0186125885336,-0.0057825384298,0.0220018071566
1576563448867900000,394,1576563448867900000,base_link,4.82524540967,0.0,0.0,0.0141642020537,0.00142618413764,0.0138826186955
1576563448968123000,395,1576563448968123000,base_link,4.74295163516,0.0,0.0,0.00169543812618,0.00243569858437,-0.00868718659184
1576563449068295000,396,1576563449068295000,base_link,5.16343620899,0.0,0.0,-0.00594654328759,-4.43253056441e-05,0.00723192531656
1576563449168513000,397,1576563449168513000,base_link,5.11084647427,0.0,0.0,-0.012658168284,-0.000844682888385,0.0147083406039
1576563449268702000,398,1576563449268702000,base_link,4.45424320926,0.0,0.0,0.00656685034096,0.00645573424719,0.00862576534106
1576563449368898000,399,1576563449368898000,base_link,5.22050482956,0.0,0.0,0.00478864207683,0.00724935400412,0.00724761262803
1576563449469099000,400,1576563449469099000,base_link,5.00373726925,0.0,0.0,0.0110197601777,0.00968503962564,0.0226900368302
1576563449569281000,401,1576563449569281000,base_link,5.05428855484,0.0,0.0,-0.00207828257339,0.00881909244025,-0.0003987738602
1576563449669478000,402,1576563449669478000,base_link,4.86669311067,0.0,0.0,-0.00878995009885,0.0129489397704,0.0138703218778
1576563449769669000,403,1576563449769669000,base_link,5.06306610776,0.0,0.0,-0.0123858581737,0.0140735002451,0.000421032722425
1576563449869907000,404,1576563449869907000,base_link,4.49883047754,0.0,0.0,0.00215381776719,0.019971506299,0.0270981787331
1576563449970086000,405,1576563449970086000,base_link,5.16976909422,0.0,0.0,0.00154068641267,0.00865041381257,0.00564315240176
1576563450070268000,406,1576563450070268000,base_link,4.68238614436,0.0,0.0,0.00263484919856,0.00408342099032,0.00734464829397
1576563450170454000,407,1576563450170454000,base_link,5.02510683212,0.0,0.0,-0.00735030327847,-0.00453747328329,0.00616130134334
1576563450270651000,408,1576563450270651000,base_link,5.03434717706,0.0,0.0,-0.00639675159494,-0.0148390793146,0.00772512659957
1576563450370844000,409,1576563450370844000,base_link,4.95800417707,0.0,0.0,-0.014593894001,-0.00827058909919,0.00553473976789
1576563450471040000,410,1576563450471040000,base_link,5.27387901245,0.0,0.0,0.00896849710079,-0.00193316507592,0.0134675763053
1576563450571289000,411,1576563450571289000,base_link,4.80735090221,0.0,0.0,0.00475040683757,0.000701222138393,0.0127221333931
1576563450671421000,412,1576563450671421000,base_link,4.76620026439,0.0,0.0,-0.00233987509452,-0.00219872250631,0.0111869580144
1576563450771649000,413,1576563450771649000,base_link,5.16628924235,0.0,0.0,-0.00661434668305,-0.00671519374814,-0.00494612336902
1576563450871827000,414,1576563450871827000,base_link,4.86274197318,0.0,0.0,-0.0122698853342,-0.00583509315918,0.0108631753906
1576563450972016000,415,1576563450972016000,base_link,4.96503740092,0.0,0.0,-0.00715075086653,0.0167342515201,-0.00813977860826
1576563451072252000,416,1576563451072252000,base_link,5.28801486017,0.0,0.0,0.000144881551667,0.00905517455617,0.00794354335097
1576563451172413000,417,1576563451172413000,base_link,4.75144649047,0.0,0.0,0.00600279906015,0.000810425007763,-0.00415787981431
1576563451272610000,418,1576563451272610000,base_link,4.55249030318,0.0,0.0,0.00951393448706,-0.0110323840398,-0.00708528460537
1576563451372798000,419,1576563451372798000,base_link,4.88751376141,0.0,0.0,-0.00303332234436,-0.00629524442495,-0.00721673723546
1576563451473021000,420,1576563451473021000,base_link,5.07921398463,0.0,0.0,-0.00682731099478,0.00923353376074,-0.0152599902889
1576563451573305000,421,1576563451573305000,base_link,4.89153035166,0.0,0.0,-0.00785887848004,0.00551287020488,0.00343367795521
1576563451673411000,422,1576563451673411000,base_link,4.93918909539,0.0,0.0,-0.000987379782286,0.00198414526276,-0.00721142916933
1576563451773609000,423,1576563451773609000,base_link,4.4583007424,0.0,0.0,0.0132425912712,0.00198639641928,-0.00256715826218
1576563451873812000,424,1576563451873812000,base_link,4.65308166534,0.0,0.0,0.00837519396225,0.0116081076305,-0.00470249345171
1576563451973996000,425,1576563451973996000,base_link,4.75352848763,0.0,0.0,-0.00491610248501,0.00709634918988,-0.00649036317097
1576563452074180000,426,1576563452074180000,base_link,5.13729793835,0.0,0.0,-0.0107569518894,0.00246672945323,-0.0131648526633
1576563452174361000,427,1576563452174361000,base_link,4.51014831999,0.0,0.0,-0.00755617599998,-0.00963613540077,-0.0057669236361
1576563452274579000,428,1576563452274579000,base_link,4.84452358707,0.0,0.0,0.00324978079975,-0.00513821927601,-0.00166303825599
1576563452374770000,429,1576563452374770000,base_link,4.12655902392,0.0,0.0,0.00406590345779,0.00435016564139,-0.00801131361823
1576563452474964000,430,1576563452474964000,base_link,4.87363107558,0.0,0.0,0.00901326057098,-0.00860928687152,-0.000587240693434
1576563452575159000,431,1576563452575159000,base_link,4.21924060336,0.0,0.0,-0.000233067244683,-0.00711214635011,-0.00153655955183
1576563452675368000,432,1576563452675368000,base_link,5.31235327468,0.0,0.0,-0.00828533068998,-0.00398190460628,-0.0190078173756
1576563452775583000,433,1576563452775583000,base_link,4.7275225912,0.0,0.0,-0.0014055451084,0.00370573790657,-0.000879280906562
1576563452875773000,434,1576563452875773000,base_link,4.77097301985,0.0,0.0,-0.000871571128941,0.00667202407356,-0.0112843519059
1576563452975964000,435,1576563452975964000,base_link,4.16926394261,0.0,0.0,0.00101874499302,-0.00171399690358,-0.0131992920697
1576563453076175000,436,1576563453076175000,base_link,4.71288813414,0.0,0.0,0.00581707650931,-0.00835076273649,0.00779038059021
1576563453176358000,437,1576563453176358000,base_link,4.89250965177,0.0,0.0,0.00180384620914,-0.00119716879921,-0.0032032614275
1576563453276587000,438,1576563453276587000,base_link,4.54820126744,0.0,0.0,0.00364080988508,0.00765078454625,-0.00600687598516
1576563453376736000,439,1576563453376736000,base_link,4.61974727038,0.0,0.0,-0.00121006115348,0.0112779287689,-0.0111352296996
1576563453476940000,440,1576563453476940000,base_link,4.9720402992,0.0,0.0,0.00154652342102,0.00313801646506,-0.014719591925
1576563453577121000,441,1576563453577121000,base_link,4.1832830792,0.0,0.0,-0.00550384780002,-0.00203975574426,0.000117103655428
1576563453677318000,442,1576563453677318000,base_link,4.47957296767,0.0,0.0,0.00530707747405,0.003772581633,-0.00118977281116
1576563453777519000,443,1576563453777519000,base_link,4.80412945513,0.0,0.0,-0.00502089298805,-0.00137577658742,0.0010306533442
1576563453877697000,444,1576563453877697000,base_link,5.00762896948,0.0,0.0,0.000100022261977,-0.015856178292,-0.00944713038166
1576563453977914000,445,1576563453977914000,base_link,4.59863577161,0.0,0.0,-0.0051278417497,-0.0115402070014,-0.0181524788606
1576563454078114000,446,1576563454078114000,base_link,5.03539770101,0.0,0.0,-0.000814030688016,0.0030956186816,0.00307048779956
1576563454178308000,447,1576563454178308000,base_link,4.72807722411,0.0,0.0,-0.0046415134667,0.0026024919417,-0.00302124186321
1576563454278497000,448,1576563454278497000,base_link,4.54436419125,0.0,0.0,-0.000832532233461,0.00621664601258,-0.00531443401341
1576563454378706000,449,1576563454378706000,base_link,4.45641631271,0.0,0.0,0.00193825572674,-0.000382512617128,-0.00947344320819
1576563454478880000,450,1576563454478880000,base_link,4.96929642703,0.0,0.0,0.0092476236318,0.0114744801738,-0.000459954777298
1576563454579100000,451,1576563454579100000,base_link,4.5008112669,0.0,0.0,0.0102941429345,0.0130885935092,0.000191138616638
1576563454679287000,452,1576563454679287000,base_link,4.85674168065,0.0,0.0,0.00462968214816,0.00674345508223,-0.0177100022934
1576563454779478000,453,1576563454779478000,base_link,4.38148153768,0.0,0.0,0.00303791922837,-0.0035944531267,-0.00224831667387
1576563454879682000,454,1576563454879682000,base_link,4.75274896811,0.0,0.0,0.00171854723083,-0.00360545978216,-0.000708384161827
1576563454979888000,455,1576563454979888000,base_link,4.14387336693,0.0,0.0,0.019533586233,-0.00245084631269,-0.00213080301835
1576563455080068000,456,1576563455080068000,base_link,5.00014232146,0.0,0.0,0.012931755714,-0.00482494464842,0.00474559822764
1576563455180258000,457,1576563455180258000,base_link,4.8641315049,0.0,0.0,0.000626056282673,-0.0202586820261,0.00160129117875
1576563455280448000,458,1576563455280448000,base_link,5.06729338314,0.0,0.0,-0.00690113607813,-0.0261675477781,-0.00928642512107
1576563455380641000,459,1576563455380641000,base_link,4.4507379945,0.0,0.0,0.0162056745815,-0.00140317840535,0.000206408583165
1576563455480870000,460,1576563455480870000,base_link,4.80387343522,0.0,0.0,0.00159576944544,-0.00350718728227,0.0119474478245
1576563455581088000,461,1576563455581088000,base_link,4.47079107337,0.0,0.0,0.0170062560339,-0.0300492783808,0.0112232946793
1576563455681231000,462,1576563455681231000,base_link,4.87499747372,0.0,0.0,0.010078951061,-0.0329450936912,0.0225715358096
1576563455781430000,463,1576563455781430000,base_link,4.71732573091,0.0,0.0,0.0222437251492,-0.00630137600017,0.0626672775017
1576563455881662000,464,1576563455881662000,base_link,4.43434386336,0.0,0.0,0.0214461019786,-0.00163302075458,0.0673796728363
1576563455981853000,465,1576563455981853000,base_link,5.06627893167,0.0,0.0,-0.0192440116807,-0.0151178100895,0.0724362968967
1576563456082012000,466,1576563456082012000,base_link,4.43003403386,0.0,0.0,-0.0181297844494,-0.0229174393591,0.114267306254
1576563456182228000,467,1576563456182228000,base_link,4.88449132196,0.0,0.0,-0.0262196826978,-0.0153262732803,0.117477720998
1576563456282441000,468,1576563456282441000,base_link,4.51028105226,0.0,0.0,-0.0283121057175,-0.0147360576938,0.122464908159
1576563456382611000,469,1576563456382611000,base_link,4.01567997113,0.0,0.0,-0.0347355556879,-0.0157894688327,0.0978217916737
1576563456482862000,470,1576563456482862000,base_link,5.04537452041,0.0,0.0,-0.0277158140328,-0.0065166942309,0.0989183980408
1576563456583024000,471,1576563456583024000,base_link,4.47222034502,0.0,0.0,-0.0350974959189,0.000485883236763,0.0550477796482
1576563456683211000,472,1576563456683211000,base_link,4.80436701407,0.0,0.0,0.0124414791939,0.0284245814109,0.00299527393203
1576563456783426000,473,1576563456783426000,base_link,4.74445182849,0.0,0.0,-0.00831182623226,0.0453602117131,-0.0298859252951
1576563456883623000,474,1576563456883623000,base_link,4.62114417048,0.0,0.0,-0.0110819383734,0.056920489007,-0.08422394296
1576563456983819000,475,1576563456983819000,base_link,4.29131874218,0.0,0.0,-0.00732073859793,0.0495319618512,-0.116611846457
1576563457083995000,476,1576563457083995000,base_link,4.92600480939,0.0,0.0,-0.0208193613126,0.0333137247148,-0.161731612245
1576563457184204000,477,1576563457184204000,base_link,4.3077623311,0.0,0.0,0.016475855344,0.0280561330743,-0.176405901513
1576563457284381000,478,1576563457284381000,base_link,5.52182722312,0.0,0.0,0.0526140072151,0.0309379404346,-0.189815203855
1576563457384591000,479,1576563457384591000,base_link,3.98931516746,0.0,0.0,0.0586099864514,0.0101997439783,-0.180053755238
1576563457484771000,480,1576563457484771000,base_link,4.76855655598,0.0,0.0,0.0656864376369,0.0140294715924,-0.134717127459
1576563457584975000,481,1576563457584975000,base_link,5.06167357892,0.0,0.0,0.0147194835926,-0.0119958801766,-0.0782005771407
