%time,field.header.seq,field.header.stamp,field.header.frame_id,field.status.velocity,field.status.steering_angle,field.status.gear.gear,field.status.mode.mode
1576563408726220803,161010,1576563408726220803,base_link,0.0,0.0312252667211,4,0
1576563408757735490,161011,1576563408757735490,base_link,0.0,0.0312252667211,4,0
1576563408792922817,161012,1576563408792922817,base_link,0.0,0.0312252667211,4,0
1576563408825882678,161013,1576563408825882678,base_link,0.0,0.0312252667211,4,0
1576563408858112868,161014,1576563408858112868,base_link,0.0,0.0312252667211,4,0
1576563408893282933,161015,1576563408893282933,base_link,0.0,0.0312252667211,4,0
1576563408926567039,161016,1576563408926567039,base_link,0.0,0.0312252667211,4,0
1576563408958627180,161017,1576563408958627180,base_link,0.0,0.0312252667211,4,0
1576563408993526158,161018,1576563408993526158,base_link,0.0,0.0312252667211,4,0
1576563409027395251,161019,1576563409027395251,base_link,0.0,0.0312252667211,4,0
1576563409059909422,161020,1576563409059909422,base_link,0.0,0.0312252667211,4,0
1576563409093903475,161021,1576563409093903475,base_link,0.0,0.0312252667211,4,0
1576563409127107573,161022,1576563409127107573,base_link,0.0,0.0312252667211,4,0
1576563409160048582,161023,1576563409160048582,base_link,0.0,0.0312252667211,4,0
1576563409194371269,161024,1576563409194371269,base_link,0.0,0.0312252667211,4,0
1576563409227679603,161025,1576563409227679603,base_link,0.0,0.0312252667211,4,0
1576563409261023883,161026,1576563409261023883,base_link,0.0,0.0312252667211,4,0
1576563409294725724,161027,1576563409294725724,base_link,0.0,0.0312252667211,4,0
1576563409327853486,161028,1576563409327853486,base_link,0.0,0.0312252667211,4,0
1576563409360156643,161029,1576563409360156643,base_link,0.0,0.0312252667211,4,0
1576563409395013090,161030,1576563409395013090,base_link,0.0,0.0312252667211,4,0
1576563409428257674,161031,1576563409428257674,base_link,0.0,0.0312252667211,4,0
1576563409460680987,161032,1576563409460680987,base_link,0.0,0.0312252667211,4,0
1576563409495382690,161033,1576563409495382690,base_link,0.0,0.0312252667211,4,0
1576563409528561985,161034,1576563409528561985,base_link,0.0,0.0312252667211,4,0
1576563409560880055,161035,1576563409560880055,base_link,0.0,0.0312252667211,4,0
1576563409595800194,161036,1576563409595800194,base_link,0.0,0.0312252667211,4,0
1576563409628974820,161037,1576563409628974820,base_link,0.0,0.0312252667211,4,0
1576563409661492370,161038,1576563409661492370,base_link,0.0,0.0312252667211,4,0
1576563409696301235,161039,1576563409696301235,base_link,0.0,0.0312252667211,4,0
1576563409729433473,161040,1576563409729433473,base_link,0.0,0.0312252667211,4,0
1576563409762644975,161041,1576563409762644975,base_link,0.0,0.0312252667211,4,0
1576563409795003414,161042,1576563409795003414,base_link,0.0,0.0312252667211,4,0
1576563409830233400,161043,1576563409830233400,base_link,0.0,0.0312252667211,4,0
1576563409863067500,161044,1576563409863067500,base_link,0.0,0.0312252667211,4,0
1576563409895447940,161045,1576563409895447940,base_link,0.0,0.0312252667211,4,0
1576563409930472284,161046,1576563409930472284,base_link,0.0,0.0312252667211,4,0
1576563409962503678,161047,1576563409962503678,base_link,0.0,0.0312252667211,4,0
1576563409997510595,161048,1576563409997510595,base_link,0.0,0.0312252667211,4,0
1576563410030914823,161049,1576563410030914823,base_link,0.0,0.0312252667211,4,0
1576563410062969668,161050,1576563410062969668,base_link,0.0,0.0312252667211,4,0
1576563410097989845,161051,1576563410097989845,base_link,0.0,0.0312252667211,4,0
1576563410131201621,161052,1576563410131201621,base_link,0.0,0.0312252667211,4,0
1576563410163422179,161053,1576563410163422179,base_link,0.0,0.0312252667211,4,0
1576563410198689721,161054,1576563410198689721,base_link,0.0,0.0312252667211,4,0
1576563410231768911,161055,1576563410231768911,base_link,0.0,0.0312252667211,4,0
1576563410263836403,161056,1576563410263836403,base_link,0.0,0.0312252667211,4,0
1576563410298873772,161057,1576563410298873772,base_link,0.0,0.0312252667211,4,0
1576563410331990269,161058,1576563410331990269,base_link,0.0,0.0312252667211,4,0
1576563410364326600,161059,1576563410364326600,base_link,0.0,0.0312252667211,4,0
1576563410399234950,161060,1576563410399234950,base_link,0.0,0.0312252667211,4,0
1576563410432729850,161061,1576563410432729850,base_link,0.0,0.0312252667211,4,0
1576563410464665150,161062,1576563410464665150,base_link,0.0,0.0312252667211,4,0
1576563410498065041,161063,1576563410498065041,base_link,0.0,0.0312252667211,4,0
1576563410532918546,161064,1576563410532918546,base_link,0.0,0.0312252667211,4,0
1576563410565052354,161065,1576563410565052354,base_link,0.0,0.0312252667211,4,0
1576563410600299652,161066,1576563410600299652,base_link,0.0,0.0312252667211,4,0
1576563410634214058,161067,1576563410634214058,base_link,0.0,0.0312252667211,4,0
1576563410665634377,161068,1576563410665634377,base_link,0.0,0.0312252667211,4,0
1576563410700545033,161069,1576563410700545033,base_link,0.0,0.0312252667211,4,0
1576563410733677683,161070,1576563410733677683,base_link,0.0,0.0312252667211,4,0
1576563410765911878,161071,1576563410765911878,base_link,0.0,0.0312252667211,4,0
1576563410801144631,161072,1576563410801144631,base_link,0.0,0.0312252667211,4,0
1576563410834121362,161073,1576563410834121362,base_link,0.0,0.0312252667211,4,0
1576563410866302840,161074,1576563410866302840,base_link,0.0,0.0312252667211,4,0
1576563410899728765,161075,1576563410899728765,base_link,0.0,0.0312252667211,4,0
1576563410934650957,161076,1576563410934650957,base_link,0.0,0.0312252667211,4,0
1576563410966941996,161077,1576563410966941996,base_link,0.0,0.0312252667211,4,0
1576563411002022776,161078,1576563411002022776,base_link,0.0,0.0312252667211,4,0
1576563411035123124,161079,1576563411035123124,base_link,0.0,0.0312252667211,4,0
1576563411067390158,161080,1576563411067390158,base_link,0.0,0.0312252667211,4,0
1576563411102298836,161081,1576563411102298836,base_link,0.0,0.0312252667211,4,0
1576563411135548378,161082,1576563411135548378,base_link,0.0,0.0312252667211,4,0
1576563411167943204,161083,1576563411167943204,base_link,0.0,0.0312252667211,4,0
1576563411202084265,161084,1576563411202084265,base_link,0.0,0.0312252667211,4,0
1576563411236025398,161085,1576563411236025398,base_link,0.0,0.0312252667211,4,0
1576563411268182243,161086,1576563411268182243,base_link,0.0,0.0312252667211,4,0
1576563411301707847,161087,1576563411301707847,base_link,0.0,0.0312252667211,4,0
1576563411336521945,161088,1576563411336521945,base_link,0.0,0.0312252667211,4,0
1576563411368863401,161089,1576563411368863401,base_link,0.0,0.0312252667211,4,0
1576563411404056888,161090,1576563411404056888,base_link,0.0,0.0312252667211,4,0
1576563411436877015,161091,1576563411436877015,base_link,0.0,0.0312252667211,4,0
1576563411469325163,161092,1576563411469325163,base_link,0.0,0.0312252667211,4,0
1576563411502455630,161093,1576563411502455630,base_link,0.0,0.0312252667211,4,0
1576563411538357703,161094,1576563411538357703,base_link,0.0,0.0312252667211,4,0
1576563411570848143,161095,1576563411570848143,base_link,0.0,0.0312252667211,4,0
1576563411604939011,161096,1576563411604939011,base_link,0.0,0.0312252667211,4,0
1576563411638731217,161097,1576563411638731217,base_link,0.0,0.0312252667211,4,0
1576563411671341417,161098,1576563411671341417,base_link,0.0,0.0312252667211,4,0
1576563411703365608,161099,1576563411703365608,base_link,0.0,0.0312252667211,4,0
1576563411738289917,161100,1576563411738289917,base_link,0.0,0.0312252667211,4,0
1576563411771508679,161101,1576563411771508679,base_link,0.0,0.0312252667211,4,0
1576563411804801860,161102,1576563411804801860,base_link,0.0,0.0312252667211,4,0
1576563411838962583,161103,1576563411838962583,base_link,0.0,0.0312252667211,4,0
1576563411871802877,161104,1576563411871802877,base_link,0.0,0.0312252667211,4,0
1576563411905210322,161105,1576563411905210322,base_link,0.0,0.0312252667211,4,0
1576563411939275024,161106,1576563411939275024,base_link,0.0,0.0312252667211,4,0
1576563411972316548,161107,1576563411972316548,base_link,0.0,0.0312252667211,4,0
1576563412006641838,161108,1576563412006641838,base_link,0.0,0.0312252667211,4,0
1576563412039986407,161109,1576563412039986407,base_link,0.0,0.0312252667211,4,0
1576563412072440949,161110,1576563412072440949,base_link,0.0,0.0312252667211,4,0
1576563412106943525,161111,1576563412106943525,base_link,0.0,0.0312252667211,4,0
1576563412140264307,161112,1576563412140264307,base_link,0.0,0.0312252667211,4,0
1576563412172750606,161113,1576563412172750606,base_link,0.0,0.0312252667211,4,0
1576563412207505800,161114,1576563412207505800,base_link,0.0,0.0312252667211,4,0
1576563412240753648,161115,1576563412240753648,base_link,0.0,0.0312252667211,4,0
1576563412273273501,161116,1576563412273273501,base_link,0.0,0.0312252667211,4,0
1576563412308018788,161117,1576563412308018788,base_link,0.0,0.0312252667211,4,0
1576563412341399025,161118,1576563412341399025,base_link,0.0,0.0312252667211,4,0
1576563412373762060,161119,1576563412373762060,base_link,0.0,0.0312252667211,4,0
1576563412408610490,161120,1576563412408610490,base_link,0.0,0.0312252667211,4,0
1576563412441758015,161121,1576563412441758015,base_link,0.0,0.0312252667211,4,0
1576563412474008906,161122,1576563412474008906,base_link,0.0,0.0312252667211,4,0
1576563412508871545,161123,1576563412508871545,base_link,0.0,0.0312252667211,4,0
1576563412542089461,161124,1576563412542089461,base_link,0.0,0.0312252667211,4,0
1576563412574305669,161125,1576563412574305669,base_link,0.0,0.0312252667211,4,0
1576563412607714733,161126,1576563412607714733,base_link,0.0,0.0312252667211,4,0
1576563412642537025,161127,1576563412642537025,base_link,0.0,0.0312252667211,4,0
1576563412674815389,161128,1576563412674815389,base_link,0.0,0.0312252667211,4,0
1576563412709993992,161129,1576563412709993992,base_link,0.0,0.0312252667211,4,0
1576563412743265226,161130,1576563412743265226,base_link,0.0,0.0312252667211,4,0
1576563412775292899,161131,1576563412775292899,base_link,0.0,0.0312252667211,4,0
1576563412810373692,161132,1576563412810373692,base_link,0.0,0.0312252667211,4,0
1576563412843386308,161133,1576563412843386308,base_link,0.0,0.0312252667211,4,0
1576563412875604952,161134,1576563412875604952,base_link,0.0,0.0312252667211,4,0
1576563412910657020,161135,1576563412910657020,base_link,0.0,0.0312252667211,4,0
1576563412944776262,161136,1576563412944776262,base_link,0.0,0.0312252667211,4,0
1576563412976118619,161137,1576563412976118619,base_link,0.0,0.0312252667211,4,0
1576563413011050419,161138,1576563413011050419,base_link,0.0,0.0312252667211,4,0
1576563413044289422,161139,1576563413044289422,base_link,0.0,0.0312252667211,4,0
1576563413076452286,161140,1576563413076452286,base_link,0.0,0.0312252667211,4,0
1576563413111751676,161141,1576563413111751676,base_link,0.0,0.0312252667211,4,0
1576563413145777030,161142,1576563413145777030,base_link,0.0,0.0312252667211,4,0
1576563413177012198,161143,1576563413177012198,base_link,0.0,0.0312252667211,4,0
1576563413210281701,161144,1576563413210281701,base_link,0.0,0.0312252667211,4,0
1576563413245120030,161145,1576563413245120030,base_link,0.0,0.0312252667211,4,0
1576563413277315215,161146,1576563413277315215,base_link,0.0,0.0312252667211,4,0
1576563413312574568,161147,1576563413312574568,base_link,0.0,0.0312252667211,4,0
1576563413345633264,161148,1576563413345633264,base_link,0.0,0.0312252667211,4,0
1576563413377823644,161149,1576563413377823644,base_link,0.0,0.0312252667211,4,0
1576563413412661994,161150,1576563413412661994,base_link,0.0,0.0312252667211,4,0
1576563413446090274,161151,1576563413446090274,base_link,0.0,0.0312252667211,4,0
1576563413478426613,161152,1576563413478426613,base_link,0.0,0.0312252667211,4,0
1576563413513477516,161153,1576563413513477516,base_link,0.0,0.0312252667211,4,0
1576563413546580827,161154,1576563413546580827,base_link,0.0,0.0312252667211,4,0
1576563413578732321,161155,1576563413578732321,base_link,0.0,0.0312252667211,4,0
1576563413613658665,161156,1576563413613658665,base_link,0.0,0.0312252667211,4,0
1576563413646885233,161157,1576563413646885233,base_link,0.0,0.0312252667211,4,0
1576563413679286735,161158,1576563413679286735,base_link,0.0,0.0312252667211,4,0
1576563413714446697,161159,1576563413714446697,base_link,0.0,0.0312252667211,4,0
1576563413747327867,161160,1576563413747327867,base_link,0.0,0.0312252667211,4,0
1576563413779479135,161161,1576563413779479135,base_link,0.0,0.0312252667211,4,0
1576563413814405898,161162,1576563413814405898,base_link,0.0,0.0312252667211,4,0
1576563413847857755,161163,1576563413847857755,base_link,0.0,0.0312252667211,4,0
1576563413879978686,161164,1576563413879978686,base_link,0.0,0.0312252667211,4,0
1576563413915898849,161165,1576563413915898849,base_link,0.0,0.0312252667211,4,0
1576563413948092284,161166,1576563413948092284,base_link,0.0,0.0312252667211,4,0
1576563413980270163,161167,1576563413980270163,base_link,0.0,0.0312252667211,4,0
1576563414014452470,161168,1576563414014452470,base_link,0.0,0.0312252667211,4,0
1576563414048523581,161169,1576563414048523581,base_link,0.0,0.0312252667211,4,0
1576563414081599598,161170,1576563414081599598,base_link,0.0,0.0312252667211,4,0
1576563414115742847,161171,1576563414115742847,base_link,0.0,0.0312252667211,4,0
1576563414148803103,161172,1576563414148803103,base_link,0.0,0.0312252667211,4,0
1576563414181206893,161173,1576563414181206893,base_link,0.0,0.0312252667211,4,0
1576563414216207043,161174,1576563414216207043,base_link,0.0,0.0312252667211,4,0
1576563414249302006,161175,1576563414249302006,base_link,0.0,0.0312252667211,4,0
1576563414282398188,161176,1576563414282398188,base_link,0.0,0.0312252667211,4,0
1576563414316576265,161177,1576563414316576265,base_link,0.0,0.0312252667211,4,0
1576563414348835687,161178,1576563414348835687,base_link,0.0,0.0312252667211,4,0
1576563414382045863,161179,1576563414382045863,base_link,0.0,0.0312252667211,4,0
1576563414417068949,161180,1576563414417068949,base_link,0.0,0.0312252667211,4,0
1576563414450259758,161181,1576563414450259758,base_link,0.0,0.0312252667211,4,0
1576563414483424530,161182,1576563414483424530,base_link,0.0,0.0312252667211,4,0
1576563414517652727,161183,1576563414517652727,base_link,0.0,0.0312252667211,4,0
1576563414551554339,161184,1576563414551554339,base_link,0.0,0.0312252667211,4,0
1576563414583649559,161185,1576563414583649559,base_link,0.0,0.0312252667211,4,0
1576563414618050179,161186,1576563414618050179,base_link,0.0,0.0312252667211,4,0
1576563414651158984,161187,1576563414651158984,base_link,0.0,0.0312252667211,4,0
1576563414684180849,161188,1576563414684180849,base_link,0.0,0.0312252667211,4,0
1576563414718194624,161189,1576563414718194624,base_link,0.0,0.0312252667211,4,0
1576563414751603340,161190,1576563414751603340,base_link,0.0,0.0312252667211,4,0
1576563414784622282,161191,1576563414784622282,base_link,0.0,0.0312252667211,4,0
1576563414818560653,161192,1576563414818560653,base_link,0.0,0.0312252667211,4,0
1576563414851937827,161193,1576563414851937827,base_link,0.0,0.0312252667211,4,0
1576563414884833256,161194,1576563414884833256,base_link,0.0,0.0312252667211,4,0
1576563414918096795,161195,1576563414918096795,base_link,0.0,0.0312252667211,4,0
1576563414952408343,161196,1576563414952408343,base_link,0.0,0.0312252667211,4,0
1576563414985424656,161197,1576563414985424656,base_link,0.0,0.0312252667211,4,0
1576563415019337004,161198,1576563415019337004,base_link,0.0,0.0312252667211,4,0
1576563415052656326,161199,1576563415052656326,base_link,0.0,0.0312252667211,4,0
1576563415085051773,161200,1576563415085051773,base_link,0.0,0.0312252667211,4,0
1576563415119898157,161201,1576563415119898157,base_link,0.0,0.0312252667211,4,0
1576563415152123307,161202,1576563415152123307,base_link,0.0,0.0312252667211,4,0
1576563415185437831,161203,1576563415185437831,base_link,0.0,0.0312252667211,4,0
1576563415220739853,161204,1576563415220739853,base_link,0.0,0.0312252667211,4,0
1576563415253607657,161205,1576563415253607657,base_link,0.0,0.0312252667211,4,0
1576563415285830092,161206,1576563415285830092,base_link,0.0,0.0312252667211,4,0
1576563415321064733,161207,1576563415321064733,base_link,0.0,0.0312252667211,4,0
1576563415353897134,161208,1576563415353897134,base_link,0.0,0.0312252667211,4,0
1576563415386059779,161209,1576563415386059779,base_link,0.0,0.0312252667211,4,0
1576563415421186018,161210,1576563415421186018,base_link,0.0,0.0312252667211,4,0
1576563415455278679,161211,1576563415455278679,base_link,0.0,0.0312252667211,4,0
1576563415486559357,161212,1576563415486559357,base_link,0.0,0.0312252667211,4,0
1576563415521470935,161213,1576563415521470935,base_link,0.0,0.0312252667211,4,0
1576563415554758290,161214,1576563415554758290,base_link,0.0,0.0312252667211,4,0
1576563415587029018,161215,1576563415587029018,base_link,0.0,0.0312252667211,4,0
1576563415622229639,161216,1576563415622229639,base_link,0.0,0.0312252667211,4,0
1576563415655308198,161217,1576563415655308198,base_link,0.0,0.0312252667211,4,0
1576563415687455481,161218,1576563415687455481,base_link,0.0,0.0312252667211,4,0
1576563415720725885,161219,1576563415720725885,base_link,0.0,0.0312252667211,4,0
1576563415755818746,161220,1576563415755818746,base_link,0.0,0.0312252667211,4,0
1576563415788008903,161221,1576563415788008903,base_link,0.0,0.0312252667211,4,0
1576563415821314131,161222,1576563415821314131,base_link,0.0,0.0312252667211,4,0
1576563415856151738,161223,1576563415856151738,base_link,0.0,0.0312252667211,4,0
1576563415888307489,161224,1576563415888307489,base_link,0.0,0.0312252667211,4,0
1576563415923208986,161225,1576563415923208986,base_link,0.0,0.0312252667211,4,0
1576563415956500608,161226,1576563415956500608,base_link,0.0,0.0312252667211,4,0
1576563415988934485,161227,1576563415988934485,base_link,0.0,0.0312252667211,4,0
1576563416023885591,161228,1576563416023885591,base_link,0.0,0.0312252667211,4,0
1576563416057021605,161229,1576563416057021605,base_link,0.0,0.0312252667211,4,0
1576563416089232540,161230,1576563416089232540,base_link,0.0,0.0312252667211,4,0
1576563416124155143,161231,1576563416124155143,base_link,0.0,0.0312252667211,4,0
1576563416157361217,161232,1576563416157361217,base_link,0.0,0.0312252667211,4,0
1576563416189648727,161233,1576563416189648727,base_link,0.0,0.0312252667211,4,0
1576563416223927712,161234,1576563416223927712,base_link,0.0,0.0312252667211,4,0
1576563416257887638,161235,1576563416257887638,base_link,0.0,0.0312252667211,4,0
1576563416290101368,161236,1576563416290101368,base_link,0.0,0.0312252667211,4,0
1576563416325084384,161237,1576563416325084384,base_link,0.0,0.0312252667211,4,0
1576563416358352731,161238,1576563416358352731,base_link,0.0,0.0312252667211,4,0
1576563416390764310,161239,1576563416390764310,base_link,0.0,0.0312252667211,4,0
1576563416426109649,161240,1576563416426109649,base_link,0.0,0.0312252667211,4,0
1576563416458632473,161241,1576563416458632473,base_link,0.0,0.0312252667211,4,0
1576563416490910704,161242,1576563416490910704,base_link,0.0,0.0312252667211,4,0
1576563416525855067,161243,1576563416525855067,base_link,0.0,0.0312252667211,4,0
1576563416559134063,161244,1576563416559134063,base_link,0.0,0.0312252667211,4,0
1576563416592151311,161245,1576563416592151311,base_link,0.0,0.0312252667211,4,0
1576563416626153224,161246,1576563416626153224,base_link,0.0,0.0312252667211,4,0
1576563416659718179,161247,1576563416659718179,base_link,0.0,0.0312252667211,4,0
1576563416691710140,161248,1576563416691710140,base_link,0.0,0.0312252667211,4,0
1576563416726680716,161249,1576563416726680716,base_link,0.0,0.0312252667211,4,0
1576563416759914515,161250,1576563416759914515,base_link,0.0,0.0312252667211,4,0
1576563416793084743,161251,1576563416793084743,base_link,0.0,0.0312252667211,4,0
1576563416827092419,161252,1576563416827092419,base_link,0.0,0.0312252667211,4,0
1576563416860169764,161253,1576563416860169764,base_link,0.0,0.0312252667211,4,0
1576563416892455820,161254,1576563416892455820,base_link,0.0,0.0312252667211,4,0
1576563416927525411,161255,1576563416927525411,base_link,0.0,0.0312252667211,4,0
1576563416960212597,161256,1576563416960212597,base_link,0.0,0.0312252667211,4,0
1576563416993923836,161257,1576563416993923836,base_link,0.0,0.0312252667211,4,0
1576563417026108331,161258,1576563417026108331,base_link,0.0,0.0312252667211,4,0
1576563417061248000,161259,1576563417061248000,base_link,0.0,0.0312252667211,4,0
1576563417093247673,161260,1576563417093247673,base_link,0.0,0.0312252667211,4,0
1576563417126923301,161261,1576563417126923301,base_link,0.0,0.0312252667211,4,0
1576563417161647690,161262,1576563417161647690,base_link,0.0,0.0312252667211,4,0
1576563417193916094,161263,1576563417193916094,base_link,0.0,0.0312252667211,4,0
1576563417229241741,161264,1576563417229241741,base_link,0.0,0.0312252667211,4,0
1576563417263084632,161265,1576563417263084632,base_link,0.0,0.0312252667211,4,0
1576563417295345274,161266,1576563417295345274,base_link,0.0,0.0312252667211,4,0
1576563417329629276,161267,1576563417329629276,base_link,0.0,0.0312252667211,4,0
1576563417362699394,161268,1576563417362699394,base_link,0.0,0.0312252667211,4,0
1576563417395686398,161269,1576563417395686398,base_link,0.0,0.0312252667211,4,0
1576563417429820447,161270,1576563417429820447,base_link,0.0,0.0312252667211,4,0
1576563417463737588,161271,1576563417463737588,base_link,0.0,0.0312252667211,4,0
1576563417496094250,161272,1576563417496094250,base_link,0.0,0.0312252667211,4,0
1576563417530130738,161273,1576563417530130738,base_link,0.0,0.0312252667211,4,0
1576563417563554424,161274,1576563417563554424,base_link,0.0,0.0312252667211,4,0
1576563417596501532,161275,1576563417596501532,base_link,0.0,0.0312252667211,4,0
1576563417629661130,161276,1576563417629661130,base_link,0.0,0.0312252667211,4,0
1576563417663940254,161277,1576563417663940254,base_link,0.0,0.0312252667211,4,0
1576563417695912851,161278,1576563417695912851,base_link,0.0,0.0312252667211,4,0
1576563417731097159,161279,1576563417731097159,base_link,0.0,0.0312252667211,4,0
1576563417764235141,161280,1576563417764235141,base_link,0.0,0.0312252667211,4,0
1576563417796617223,161281,1576563417796617223,base_link,0.0,0.0312252667211,4,0
1576563417831464001,161282,1576563417831464001,base_link,0.0,0.0312252667211,4,0
1576563417864744128,161283,1576563417864744128,base_link,0.0,0.0312252667211,4,0
1576563417896829626,161284,1576563417896829626,base_link,0.0,0.0312252667211,4,0
1576563417931837977,161285,1576563417931837977,base_link,0.0,0.0312252667211,4,0
1576563417965180949,161286,1576563417965180949,base_link,0.0,0.0312252667211,4,0
1576563417997269025,161287,1576563417997269025,base_link,0.0,0.0312252667211,4,0
1576563418030979410,161288,1576563418030979410,base_link,0.0,0.0312252667211,4,0
1576563418065441741,161289,1576563418065441741,base_link,0.0,0.0312252667211,4,0
1576563418097701255,161290,1576563418097701255,base_link,0.0,0.0312252667211,4,0
1576563418133012207,161291,1576563418133012207,base_link,0.0,0.0312252667211,4,0
1576563418165816595,161292,1576563418165816595,base_link,0.0,0.0312252667211,4,0
1576563418198144718,161293,1576563418198144718,base_link,0.0,0.0312252667211,4,0
1576563418232929022,161294,1576563418232929022,base_link,0.0,0.0312252667211,4,0
1576563418266157683,161295,1576563418266157683,base_link,0.0,0.0312252667211,4,0
1576563418298449286,161296,1576563418298449286,base_link,0.0,0.0312252667211,4,0
1576563418333745880,161297,1576563418333745880,base_link,0.0,0.0312252667211,4,0
1576563418366718053,161298,1576563418366718053,base_link,0.0,0.0312252667211,4,0
1576563418398805341,161299,1576563418398805341,base_link,0.0,0.0312252667211,4,0
1576563418432114821,161300,1576563418432114821,base_link,0.0,0.0312252667211,4,0
1576563418467047857,161301,1576563418467047857,base_link,0.0,0.0312252667211,4,0
1576563418500299356,161302,1576563418500299356,base_link,0.0,0.0312252667211,4,0
1576563418534666432,161303,1576563418534666432,base_link,0.0,0.0312252667211,4,0
1576563418567429587,161304,1576563418567429587,base_link,0.0,0.0312252667211,4,0
1576563418599709355,161305,1576563418599709355,base_link,0.0,0.0312252667211,4,0
1576563418632952875,161306,1576563418632952875,base_link,0.0,0.0312252667211,4,0
1576563418668029895,161307,1576563418668029895,base_link,0.0,0.0312252667211,4,0
1576563418700948041,161308,1576563418700948041,base_link,0.0,0.0312252667211,4,0
1576563418735377830,161309,1576563418735377830,base_link,0.0,0.0314166940793,4,0
1576563418768340035,161310,1576563418768340035,base_link,0.0,0.0314166940793,4,0
1576563418800639755,161311,1576563418800639755,base_link,0.0,0.0315443140259,4,0
1576563418835556074,161312,1576563418835556074,base_link,0.0,0.0316719353388,4,0
1576563418868892229,161313,1576563418868892229,base_link,0.0,0.0316719353388,4,0
1576563418902026743,161314,1576563418902026743,base_link,0.0,0.0316719353388,4,0
1576563418935964489,161315,1576563418935964489,base_link,0.0,0.0316719353388,4,0
1576563418969190616,161316,1576563418969190616,base_link,0.0,0.0316719353388,4,0
1576563419001397391,161317,1576563419001397391,base_link,0.0,0.0316719353388,4,0
1576563419034665282,161318,1576563419034665282,base_link,0.0,0.0316719353388,4,0
1576563419069714989,161319,1576563419069714989,base_link,0.0,0.0316719353388,4,0
1576563419102738912,161320,1576563419102738912,base_link,0.0,0.0316719353388,4,0
1576563419136752875,161321,1576563419136752875,base_link,0.0,0.0316719353388,4,0
1576563419169858956,161322,1576563419169858956,base_link,0.0,0.0316719353388,4,0
1576563419202163683,161323,1576563419202163683,base_link,0.0,0.0316719353388,4,0
1576563419237132917,161324,1576563419237132917,base_link,0.0,0.0316719353388,4,0
1576563419270473233,161325,1576563419270473233,base_link,0.0,0.0316719353388,4,0
1576563419303707711,161326,1576563419303707711,base_link,0.0,0.0316719353388,4,0
1576563419337414754,161327,1576563419337414754,base_link,0.0,0.0316719353388,4,0
1576563419370901213,161328,1576563419370901213,base_link,0.0,0.0316719353388,4,0
1576563419403007633,161329,1576563419403007633,base_link,0.0,0.0316719353388,4,0
1576563419436347719,161330,1576563419436347719,base_link,0.0,0.0316719353388,4,0
1576563419471202124,161331,1576563419471202124,base_link,0.0,0.0316719353388,4,0
1576563419503314943,161332,1576563419503314943,base_link,0.0,0.0316719353388,4,0
1576563419538272965,161333,1576563419538272965,base_link,0.0,0.0316719353388,4,0
1576563419571490504,161334,1576563419571490504,base_link,0.0,0.0316719353388,4,0
1576563419603752657,161335,1576563419603752657,base_link,0.0,0.0316719353388,4,0
1576563419638642428,161336,1576563419638642428,base_link,0.0,0.0316719353388,4,0
1576563419672061999,161337,1576563419672061999,base_link,0.0,0.0316719353388,4,0
1576563419704044835,161338,1576563419704044835,base_link,0.0,0.0316719353388,4,0
1576563419737380395,161339,1576563419737380395,base_link,0.0,0.0316719353388,4,0
1576563419772262211,161340,1576563419772262211,base_link,0.0,0.0316719353388,4,0
1576563419804484172,161341,1576563419804484172,base_link,0.0,0.0316719353388,4,0
1576563419839336880,161342,1576563419839336880,base_link,0.0,0.0316719353388,4,0
1576563419872878783,161343,1576563419872878783,base_link,0.0,0.031799558018,4,0
1576563419904773877,161344,1576563419904773877,base_link,0.0,0.031799558018,4,0
1576563419939653096,161345,1576563419939653096,base_link,0.0,0.031799558018,4,0
1576563419973227478,161346,1576563419973227478,base_link,0.0,0.03186336987,4,0
1576563420005260572,161347,1576563420005260572,base_link,0.0,0.03186336987,4,0
1576563420040189993,161348,1576563420040189993,base_link,0.0,0.03186336987,4,0
1576563420073723734,161349,1576563420073723734,base_link,0.0,0.03186336987,4,0
1576563420105712093,161350,1576563420105712093,base_link,0.0,0.03186336987,4,0
1576563420141215589,161351,1576563420141215589,base_link,0.0,0.03186336987,4,0
1576563420174069140,161352,1576563420174069140,base_link,0.0,0.03186336987,4,0
1576563420205889371,161353,1576563420205889371,base_link,0.0,0.03186336987,4,0
1576563420240008396,161354,1576563420240008396,base_link,0.0,0.03186336987,4,0
1576563420275099656,161355,1576563420275099656,base_link,0.0,0.03186336987,4,0
1576563420307346942,161356,1576563420307346942,base_link,0.0,0.03186336987,4,0
1576563420341746843,161357,1576563420341746843,base_link,0.0,0.03186336987,4,0
1576563420375472571,161358,1576563420375472571,base_link,0.0,0.03186336987,4,0
1576563420407120635,161359,1576563420407120635,base_link,0.11505,0.0318619454335,4,0
1576563420442027259,161360,1576563420442027259,base_link,0.2808,0.0318548865111,4,0
1576563420475301506,161361,1576563420475301506,base_link,0.28275,0.0318547683095,4,0
1576563420508253737,161362,1576563420508253737,base_link,0.33345,0.0318514083147,4,0
1576563420542364251,161363,1576563420542364251,base_link,0.35685,0.0318496713412,4,0
1576563420576145477,161364,1576563420576145477,base_link,0.39195,0.0322295249399,4,0
1576563420607594952,161365,1576563420607594952,base_link,0.4485,0.0327345311497,4,0
1576563420642658996,161366,1576563420642658996,base_link,0.4719,0.0333060844362,4,0
1576563420676006791,161367,1576563420676006791,base_link,0.54795,0.0337436621915,4,0
1576563420708964357,161368,1576563420708964357,base_link,0.61815,0.0344992470584,4,0
1576563420742249814,161369,1576563420742249814,base_link,0.70005,0.035378810349,4,0
1576563420776176112,161370,1576563420776176112,base_link,0.78585,0.036064305079,4,0
1576563420808641210,161371,1576563420808641210,base_link,0.89115,0.0369978451705,4,0
1576563420843489368,161372,1576563420843489368,base_link,0.95745,0.0380008993788,4,0
1576563420876634295,161373,1576563420876634295,base_link,1.04715,0.0386776247733,4,0
1576563420909150003,161374,1576563420909150003,base_link,1.1544,0.0395368191547,4,0
1576563420943932570,161375,1576563420943932570,base_link,1.25775,0.0402658878748,4,0
1576563420977052198,161376,1576563420977052198,base_link,1.32405,0.0406871160422,4,0
1576563421009414728,161377,1576563421009414728,base_link,1.4352,0.0409623419127,4,0
1576563421045121489,161378,1576563421045121489,base_link,1.54245,0.0410451990933,4,0
1576563421077657671,161379,1576563421077657671,base_link,1.677,0.0409856889268,4,0
1576563421110026495,161380,1576563421110026495,base_link,1.75695,0.0408216565747,4,0
1576563421144614055,161381,1576563421144614055,base_link,1.88955,0.0405664610985,4,0
1576563421177934334,161382,1576563421177934334,base_link,2.02215,0.0404963346402,4,0
1576563421211262028,161383,1576563421211262028,base_link,2.16255,0.0401657313571,4,0
1576563421245088874,161384,1576563421245088874,base_link,2.2854,0.0396536145452,4,0
1576563421278339938,161385,1576563421278339938,base_link,2.379,0.0389696622151,4,0
1576563421310606832,161386,1576563421310606832,base_link,2.50185,0.0382045451124,4,0
1576563421345420650,161387,1576563421345420650,base_link,2.6481,0.0372364270076,4,0
1576563421379420743,161388,1576563421379420743,base_link,2.75535,0.0345512836003,4,0
1576563421412084470,161389,1576563421412084470,base_link,2.8782,0.0321134801259,4,0
1576563421445923569,161390,1576563421445923569,base_link,3.02445,0.0294230096196,4,0
1576563421479307412,161391,1576563421479307412,base_link,3.1629,0.0274893304837,4,0
1576563421511393975,161392,1576563421511393975,base_link,3.26625,0.0246593464709,4,0
1576563421546264602,161393,1576563421546264602,base_link,3.4125,0.0220041350497,4,0
1576563421579904383,161394,1576563421579904383,base_link,3.55095,0.020528890156,4,0
1576563421612818860,161395,1576563421612818860,base_link,3.7089,0.0185644451997,4,0
1576563421646755503,161396,1576563421646755503,base_link,3.7869,0.0171311845938,4,0
1576563421680014702,161397,1576563421680014702,base_link,3.91365,0.0163503155286,4,0
1576563421712220000,161398,1576563421712220000,base_link,4.0677,0.0157428207308,4,0
1576563421747223514,161399,1576563421747223514,base_link,4.21395,0.0153814828366,4,0
1576563421780515595,161400,1576563421780515595,base_link,4.3017,0.0152250091395,4,0
1576563421812585137,161401,1576563421812585137,base_link,4.44015,0.0151069439696,4,0
1576563421845882409,161402,1576563421845882409,base_link,4.56885,0.0150517142212,4,0
1576563421881723616,161403,1576563421881723616,base_link,4.70145,0.0145785030301,4,0
1576563421912996394,161404,1576563421912996394,base_link,4.8048,0.0138833966917,4,0
1576563421946434580,161405,1576563421946434580,base_link,4.93935,0.0132968095029,4,0
1576563421980535826,161406,1576563421980535826,base_link,5.0895,0.0128245207323,4,0
1576563422013557351,161407,1576563422013557351,base_link,5.21625,0.0123642650146,4,0
1576563422048451255,161408,1576563422048451255,base_link,5.36055,0.0117254408133,4,0
1576563422080616990,161409,1576563422080616990,base_link,5.4717,0.0112771495985,4,0
1576563422113776688,161410,1576563422113776688,base_link,5.61405,0.0108198110131,4,0
1576563422148767530,161411,1576563422148767530,base_link,5.7564,0.00984996472406,4,0
1576563422182348560,161412,1576563422182348560,base_link,5.91045,0.0083151372228,4,0
1576563422214423143,161413,1576563422214423143,base_link,6.0099,0.00658252026928,4,0
1576563422249463806,161414,1576563422249463806,base_link,6.1698,0.00502065154808,4,0
1576563422282663924,161415,1576563422282663924,base_link,6.3063,0.00398477988213,4,0
1576563422314890248,161416,1576563422314890248,base_link,6.46035,0.00301293108636,4,0
1576563422349873737,161417,1576563422349873737,base_link,6.5715,0.00238889174902,4,0
1576563422384027134,161418,1576563422384027134,base_link,6.69045,0.00160361204888,4,0
1576563422450184835,161419,1576563422450184835,base_link,6.98685,0.00142083025625,4,0
1576563422483509996,161420,1576563422483509996,base_link,7.16235,0.00141068451868,4,0
1576563422515698249,161421,1576563422515698249,base_link,7.254,0.00140534498712,4,0
1576563422550697914,161422,1576563422550697914,base_link,7.3671,0.00139871887837,4,0
1576563422584849266,161423,1576563422584849266,base_link,7.52895,0.00138916956723,4,0
1576563422616011265,161424,1576563422616011265,base_link,7.6362,0.00138280071184,4,0
1576563422649349732,161425,1576563422649349732,base_link,7.7532,0.0013758178955,4,0
1576563422684148404,161426,1576563422684148404,base_link,7.8819,0.00136809714315,4,0
1576563422716553773,161427,1576563422716553773,base_link,8.01255,0.00141253898053,4,0
1576563422751512825,161428,1576563422751512825,base_link,8.1393,0.00135254200744,4,0
1576563422783641519,161429,1576563422783641519,base_link,8.2797,0.00134399987456,4,0
1576563422816986131,161430,1576563422816986131,base_link,8.41815,0.00133554100183,4,0
1576563422851889501,161431,1576563422851889501,base_link,8.56635,0.00137747155765,4,0
1576563422885304640,161432,1576563422885304640,base_link,8.62875,0.00147523280171,4,0
1576563422917449322,161433,1576563422917449322,base_link,8.76915,0.00146558091598,4,0
1576563422952638414,161434,1576563422952638414,base_link,8.9076,0.00165688294848,4,0
1576563422985763388,161435,1576563422985763388,base_link,9.03045,0.00179698228795,4,0
1576563423017846754,161436,1576563423017846754,base_link,9.12015,0.00213722131767,4,0
1576563423052727605,161437,1576563423052727605,base_link,9.26445,0.00231984001612,4,0
1576563423086025362,161438,1576563423086025362,base_link,9.4029,0.00230426088169,4,0
1576563423118564847,161439,1576563423118564847,base_link,9.5394,0.00219147468791,4,0
1576563423153428269,161440,1576563423153428269,base_link,9.6252,0.00218221313043,4,0
1576563423187380889,161441,1576563423187380889,base_link,9.7227,0.00217168392529,4,0
1576563423218530271,161442,1576563423218530271,base_link,9.8592,0.00225281052069,4,0
1576563423253891889,161443,1576563423253891889,base_link,9.9801,0.00223916652056,4,0
1576563423287901199,161444,1576563423287901199,base_link,10.0971,0.00227332900465,4,0
1576563423319977076,161445,1576563423319977076,base_link,10.1985,0.00226164581655,4,0
1576563423354403082,161446,1576563423354403082,base_link,10.3428,0.00219825221734,4,0
1576563423388031126,161447,1576563423388031126,base_link,10.4364,0.0021877047325,4,0
1576563423420523083,161448,1576563423420523083,base_link,10.52025,0.00208556179635,4,0
1576563423454393809,161449,1576563423454393809,base_link,10.64505,0.00198001567931,4,0
1576563423487685883,161450,1576563423487685883,base_link,10.70355,0.00197399911914,4,0
1576563423520870987,161451,1576563423520870987,base_link,10.82445,0.00182471246047,4,0
1576563423554039164,161452,1576563423554039164,base_link,10.92195,0.00172462929658,4,0
1576563423588288220,161453,1576563423588288220,base_link,11.03115,0.00162448566836,4,0
1576563423620351483,161454,1576563423620351483,base_link,11.0955,0.00161897260517,4,0
1576563423655560318,161455,1576563423655560318,base_link,11.16765,0.00170240419669,4,0
1576563423688519290,161456,1576563423688519290,base_link,11.2671,0.00178256775539,4,0
1576563423720825767,161457,1576563423720825767,base_link,11.37045,0.00190574013745,4,0
1576563423755839239,161458,1576563423755839239,base_link,11.4699,0.00220424478203,4,0
1576563423789142505,161459,1576563423789142505,base_link,11.5479,0.00267799917436,4,0
1576563423821720260,161460,1576563423821720260,base_link,11.61615,0.00279942179613,4,0
1576563423856136623,161461,1576563423856136623,base_link,11.70195,0.00300422019902,4,0
1576563423889691680,161462,1576563423889691680,base_link,11.7702,0.0029497709669,4,0
1576563423921666369,161463,1576563423921666369,base_link,11.92425,0.00275313079053,4,0
1576563423956655170,161464,1576563423956655170,base_link,11.95155,0.00244833771055,4,0
1576563423990067494,161465,1576563423990067494,base_link,12.08415,0.00221746224952,4,0
1576563424021931150,161466,1576563424021931150,base_link,12.11145,0.00204382238619,4,0
1576563424055381990,161467,1576563424055381990,base_link,12.23625,0.00181843846441,4,0
1576563424090193343,161468,1576563424090193343,base_link,12.30255,0.00168541586232,4,0
1576563424122438504,161469,1576563424122438504,base_link,12.39615,0.00150907277531,4,0
1576563424156605108,161470,1576563424156605108,base_link,12.46635,0.00150324376434,4,0
1576563424189793655,161471,1576563424189793655,base_link,12.55995,0.00149549095568,4,0
1576563424223107930,161472,1576563424223107930,base_link,12.6321,0.00136539550243,4,0
1576563424257755952,161473,1576563424257755952,base_link,12.65745,0.00111556182881,4,0
1576563424291706695,161474,1576563424291706695,base_link,12.83295,0.000818315735849,4,0
1576563424323315992,161475,1576563424323315992,base_link,12.86805,0.000530860347952,4,0
1576563424358222430,161476,1576563424358222430,base_link,12.948,0.00024391993669,4,0
1576563424391673863,161477,1576563424391673863,base_link,12.9987,0.000121614640171,4,0
1576563424423862612,161478,1576563424423862612,base_link,13.0338,0.0,4,0
1576563424458989508,161479,1576563424458989508,base_link,13.0884,-0.000242008853815,4,0
1576563424492233302,161480,1576563424492233302,base_link,13.1547,-0.000482219191995,4,0
1576563424524227907,161481,1576563424524227907,base_link,13.24635,-0.000519724903765,4,0
1576563424559042423,161482,1576563424559042423,base_link,13.31655,-0.00051767949737,4,0
1576563424592475229,161483,1576563424592475229,base_link,13.2678,-0.00051909935447,4,0
1576563424624718596,161484,1576563424624718596,base_link,13.27365,-0.000479012036351,4,0
1576563424659687756,161485,1576563424659687756,base_link,13.2951,-0.000398697324231,4,0
1576563424693563885,161486,1576563424693563885,base_link,13.33215,-0.000318295390021,4,0
1576563424725122826,161487,1576563424725122826,base_link,13.33995,-0.000318155814933,4,0
1576563424759868242,161488,1576563424759868242,base_link,13.26,-0.000239692093454,4,0
1576563424793121491,161489,1576563424793121491,base_link,13.3458,-0.00019878297102,4,0
1576563424825608386,161490,1576563424825608386,base_link,13.3029,-0.000119558185324,4,0
1576563424860311110,161491,1576563424860311110,base_link,13.2951,3.98704668298e-05,4,0
1576563424894477982,161492,1576563424894477982,base_link,13.30485,0.000199244474701,4,0
1576563424925655301,161493,1576563424925655301,base_link,13.2834,0.000319177213174,4,0
1576563424960676017,161494,1576563424960676017,base_link,13.22685,0.000600367503467,4,0
1576563424993976589,161495,1576563424993976589,base_link,13.24245,0.000879778734025,4,0
1576563425026201025,161496,1576563425026201025,base_link,13.2678,0.00115807243973,4,0
1576563425060214586,161497,1576563425060214586,base_link,13.2522,0.00131897032437,4,0
1576563425094504476,161498,1576563425094504476,base_link,13.1937,0.00160402757571,4,0
1576563425127498991,161499,1576563425127498991,base_link,13.23075,0.00180079915758,4,0
1576563425159951234,161500,1576563425159951234,base_link,13.23075,0.0019208621202,4,0
1576563425194894669,161501,1576563425194894669,base_link,13.19565,0.00192464852792,4,0
1576563425227410718,161502,1576563425227410718,base_link,13.2054,0.00192359626128,4,0
1576563425262238781,161503,1576563425262238781,base_link,13.17225,0.00192717549002,4,0
1576563425295298367,161504,1576563425295298367,base_link,13.104,0.00193455799401,4,0
1576563425328556125,161505,1576563425328556125,base_link,13.143,0.00193033720304,4,0
1576563425362510277,161506,1576563425362510277,base_link,13.04745,0.0019002543221,4,0
1576563425395698194,161507,1576563425395698194,base_link,13.11375,0.00181264915374,4,0
1576563425428457597,161508,1576563425428457597,base_link,13.0923,0.00181482707021,4,0
1576563425463204608,161509,1576563425463204608,base_link,13.0572,0.00181839451468,4,0
1576563425496032555,161510,1576563425496032555,base_link,13.0845,0.00181561945218,4,0
1576563425529236555,161511,1576563425529236555,base_link,13.00845,0.00182335662331,4,0
1576563425563285457,161512,1576563425563285457,base_link,13.03575,0.00182057679709,4,0
1576563425596505069,161513,1576563425596505069,base_link,13.03575,0.00182057679709,4,0
1576563425629962628,161514,1576563425629962628,base_link,12.9792,0.00174516142115,4,0
1576563425663976935,161515,1576563425663976935,base_link,12.98115,0.00166380427861,4,0
1576563425697075659,161516,1576563425697075659,base_link,12.94215,0.00162675821592,4,0
1576563425730377206,161517,1576563425730377206,base_link,12.9519,0.00154457450025,4,0
1576563425764213092,161518,1576563425764213092,base_link,12.96165,0.00154373425667,4,0
1576563425797548785,161519,1576563425797548785,base_link,12.93825,0.00154575131466,4,0
1576563425830537357,161520,1576563425830537357,base_link,12.9129,0.00154793828741,4,0
1576563425864508031,161521,1576563425864508031,base_link,12.8973,0.00154928505673,4,0
1576563425897907366,161522,1576563425897907366,base_link,12.92655,0.00154676045122,4,0
1576563425930175553,161523,1576563425930175553,base_link,12.8232,0.00155569191052,4,0
1576563425964921349,161524,1576563425964921349,base_link,12.93825,0.00154575131466,4,0
1576563425998198195,161525,1576563425998198195,base_link,12.81345,0.00147460807547,4,0
1576563426031296117,161526,1576563426031296117,base_link,12.8271,0.00110509927086,4,0
1576563426066017077,161527,1576563426066017077,base_link,12.8154,0.000696244404333,4,0
1576563426098580730,161528,1576563426098580730,base_link,12.8193,-0.00012283577701,4,0
1576563426130832315,161529,1576563426130832315,base_link,12.81345,-0.000982970585567,4,0
1576563426166647690,161530,1576563426166647690,base_link,12.8232,-0.00184200385592,4,0
1576563426199130718,161531,1576563426199130718,base_link,12.7686,-0.00234025090766,4,0
1576563426232166339,161532,1576563426232166339,base_link,12.74715,-0.00271295313781,4,0
1576563426266370145,161533,1576563426266370145,base_link,12.7569,-0.00279364077612,4,0
1576563426300310274,161534,1576563426300310274,base_link,12.70815,-0.00280121263914,4,0
1576563426332641237,161535,1576563426332641237,base_link,12.7608,-0.00262875747755,4,0
1576563426366854032,161536,1576563426366854032,base_link,12.73155,-0.00255075809419,4,0
1576563426400151573,161537,1576563426400151573,base_link,12.70035,-0.00255517896861,4,0
1576563426432935200,161538,1576563426432935200,base_link,12.7179,-0.00255269167741,4,0
1576563426467226219,161539,1576563426467226219,base_link,12.70035,-0.0025139707561,4,0
1576563426500266697,161540,1576563426500266697,base_link,12.67695,-0.00243471193576,4,0
1576563426532618869,161541,1576563426532618869,base_link,12.7218,-0.00222286160616,4,0
1576563426567883351,161542,1576563426567883351,base_link,12.62235,-0.00206960005936,4,0
1576563426600903922,161543,1576563426600903922,base_link,12.6633,-0.00198232003082,4,0
1576563426632945163,161544,1576563426632945163,base_link,12.62625,-0.00194501403764,4,0
1576563426667995459,161545,1576563426667995459,base_link,12.61065,-0.0018638634044,4,0
1576563426701360920,161546,1576563426701360920,base_link,12.57165,-0.00166036155868,4,0
1576563426734057362,161547,1576563426734057362,base_link,12.6087,-0.00157411820064,4,0
1576563426766683156,161548,1576563426766683156,base_link,12.5034,-0.00129166356599,4,0
1576563426802440962,161549,1576563426802440962,base_link,12.5385,-0.000998072511584,4,0
1576563426833698401,161550,1576563426833698401,base_link,12.5697,-0.000705758081531,4,0
1576563426868831787,161551,1576563426868831787,base_link,12.55605,-0.000332377488316,4,0
1576563426900982634,161552,1576563426900982634,base_link,12.5697,-0.000249095865261,4,0
1576563426934028770,161553,1576563426934028770,base_link,12.5151,-0.000208207718281,4,0
1576563426969033793,161554,1576563426969033793,base_link,12.5541,-0.000207759418534,4,0
1576563427002371319,161555,1576563427002371319,base_link,12.4527,-0.000208926108269,4,0
1576563427034618822,161556,1576563427034618822,base_link,12.4956,-0.000208432069115,4,0
1576563427069510274,161557,1576563427069510274,base_link,12.4566,-0.00012532914133,4,0
1576563427102763184,161558,1576563427102763184,base_link,12.48585,4.17092972845e-05,4,0
1576563427134877346,161559,1576563427134877346,base_link,12.4761,0.000250392691127,4,0
1576563427168283458,161560,1576563427168283458,base_link,12.4332,0.00050197711008,4,0
1576563427203113012,161561,1576563427203113012,base_link,12.41565,0.000711828728535,4,0
1576563427235600281,161562,1576563427235600281,base_link,12.4098,0.000795832577967,4,0
1576563427270359512,161563,1576563427270359512,base_link,12.41955,0.000837270010279,4,0
1576563427303651441,161564,1576563427303651441,base_link,12.4098,0.000837719976848,4,0
1576563427335888319,161565,1576563427335888319,base_link,12.3747,0.000839340929861,4,0
1576563427371122979,161566,1576563427371122979,base_link,12.3591,0.000840061889581,4,0
1576563427403988414,161567,1576563427403988414,base_link,12.3747,0.000839340929861,4,0
1576563427436213844,161568,1576563427436213844,base_link,12.36885,0.000797629282315,4,0
1576563427471192174,161569,1576563427471192174,base_link,12.3669,0.000839701368649,4,0
1576563427504512090,161570,1576563427504512090,base_link,12.34935,0.000840512655977,4,0
1576563427537234320,161571,1576563427537234320,base_link,12.29865,0.000842858691292,4,0
1576563427571844180,161572,1576563427571844180,base_link,12.3123,0.000842226729687,4,0
1576563427604901346,161573,1576563427604901346,base_link,12.25185,0.000929533309087,4,0
1576563427636979171,161574,1576563427636979171,base_link,12.2811,0.000928042021403,4,0
1576563427672138903,161575,1576563427672138903,base_link,12.2772,0.00109701961699,4,0
1576563427705156841,161576,1576563427705156841,base_link,12.2265,0.00110007579856,4,0
1576563427738213550,161577,1576563427738213550,base_link,12.21675,0.00122767026695,4,0
1576563427772663654,161578,1576563427772663654,base_link,12.18945,0.00122950830242,4,0
1576563427804714823,161579,1576563427804714823,base_link,12.18165,0.0012300337097,4,0
1576563427837943522,161580,1576563427837943522,base_link,12.13095,0.00123345158613,4,0
1576563427871270082,161581,1576563427871270082,base_link,12.1719,0.00123069062695,4,0
1576563427906219484,161582,1576563427906219484,base_link,12.07245,0.00123740109159,4,0
1576563427939492766,161583,1576563427939492766,base_link,12.09,0.001236215594,4,0
1576563427971647717,161584,1576563427971647717,base_link,12.08415,0.00123661069868,4,0
1576563428006684436,161585,1576563428006684436,base_link,12.04125,0.00123950999577,4,0
1576563428038765815,161586,1576563428038765815,base_link,12.0393,0.00123964185944,4,0
1576563428073700298,161587,1576563428073700298,base_link,12.04905,0.00115353139196,4,0
1576563428107077826,161588,1576563428107077826,base_link,11.93595,0.00116066072892,4,0
1576563428140005801,161589,1576563428140005801,base_link,11.9574,0.00115930703584,4,0
1576563428174028697,161590,1576563428174028697,base_link,11.9496,0.00115979920349,4,0
1576563428207275729,161591,1576563428207275729,base_link,11.9301,0.00111802691223,4,0
1576563428239411756,161592,1576563428239411756,base_link,11.9184,0.00111873833905,4,0
1576563428272744258,161593,1576563428272744258,base_link,11.8287,0.000951238740498,4,0
1576563428307752113,161594,1576563428307752113,base_link,11.8209,0.000865125061901,4,0
1576563428340633903,161595,1576563428340633903,base_link,11.8014,0.000822736158765,4,0
1576563428372972151,161596,1576563428372972151,base_link,11.7429,0.000868785874091,4,0
1576563428408011741,161597,1576563428408011741,base_link,11.7819,0.000866954632921,4,0
1576563428440057036,161598,1576563428440057036,base_link,11.7195,0.00086988540885,4,0
1576563428475002564,161599,1576563428475002564,base_link,11.7507,0.000868419493582,4,0
1576563428508360435,161600,1576563428508360435,base_link,11.60055,0.000875483627704,4,0
1576563428541373696,161601,1576563428541373696,base_link,11.6142,0.000874840467108,4,0
1576563428575340586,161602,1576563428575340586,base_link,11.5635,0.000833367245194,4,0
1576563428608637199,161603,1576563428608637199,base_link,11.5362,0.0008345907375,4,0
1576563428640783850,161604,1576563428640783850,base_link,11.53815,0.000834503322093,4,0
1576563428675874384,161605,1576563428675874384,base_link,11.51475,0.000835552539593,4,0
1576563428709086414,161606,1576563428709086414,base_link,11.4426,0.000838790770146,4,0
1576563428741300226,161607,1576563428741300226,base_link,11.4621,0.000837915110868,4,0
1576563428776248397,161608,1576563428776248397,base_link,11.41725,0.000839929629658,4,0
1576563428809583238,161609,1576563428809583238,base_link,11.388,0.000841244394438,4,0
1576563428841774728,161610,1576563428841774728,base_link,11.3724,0.000841945903247,4,0
1576563428877011915,161611,1576563428877011915,base_link,11.3334,0.000843700576344,4,0
1576563428910201086,161612,1576563428910201086,base_link,11.28465,0.000845895690988,4,0
1576563428942347846,161613,1576563428942347846,base_link,11.2593,0.000757873187881,4,0
1576563428977141055,161614,1576563428977141055,base_link,11.2359,0.000758816958027,4,0
1576563429010389093,161615,1576563429010389093,base_link,11.2242,0.000759288986965,4,0
1576563429042572305,161616,1576563429042572305,base_link,11.1852,0.000760863098154,4,0
1576563429078150023,161617,1576563429078150023,base_link,11.15595,0.000762044357115,4,0
1576563429111248544,161618,1576563429111248544,base_link,11.1072,0.000674127785132,4,0
1576563429142992880,161619,1576563429142992880,base_link,11.07405,0.000585266933568,4,0
1576563429178281833,161620,1576563429178281833,base_link,11.037,0.000541303472259,4,0
1576563429212180918,161621,1576563429212180918,base_link,10.9746,0.000543086840045,4,0
1576563429244514952,161622,1576563429244514952,base_link,10.9941,0.000542529364114,4,0
1576563429278722830,161623,1576563429278722830,base_link,10.96485,0.000588647225112,4,0
1576563429312608833,161624,1576563429312608833,base_link,10.89075,0.000590943981187,4,0
1576563429344255239,161625,1576563429344255239,base_link,10.84785,0.000592274714063,4,0
1576563429377368244,161626,1576563429377368244,base_link,10.8069,0.000593545630221,4,0
1576563429411395873,161627,1576563429411395873,base_link,10.73085,0.000595907549586,4,0
1576563429444321718,161628,1576563429444321718,base_link,10.76595,0.000594817174707,4,0
1576563429479829154,161629,1576563429479829154,base_link,10.6665,0.000597907660429,4,0
1576563429512775555,161630,1576563429512775555,base_link,10.64895,0.000552417435441,4,0
1576563429545592246,161631,1576563429545592246,base_link,10.5807,0.000461979241008,4,0
1576563429579686970,161632,1576563429579686970,base_link,10.52415,0.000370665120171,4,0
1576563429613716662,161633,1576563429613716662,base_link,10.47735,0.000278670351946,4,0
1576563429645210504,161634,1576563429645210504,base_link,10.41495,0.00027956751822,4,0
1576563429680143952,161635,1576563429680143952,base_link,10.3935,0.00027987601031,4,0
1576563429713574339,161636,1576563429713574339,base_link,10.37205,0.000280184545856,4,0
1576563429745730003,161637,1576563429745730003,base_link,10.3038,0.000281166516319,4,0
1576563429780534962,161638,1576563429780534962,base_link,10.22775,0.000282261128428,4,0
1576563429813722741,161639,1576563429813722741,base_link,10.25115,0.000281924282998,4,0
1576563429845893232,161640,1576563429845893232,base_link,10.2063,0.000235474478204,4,0
1576563429880952214,161641,1576563429880952214,base_link,10.14,0.000236270009518,4,0
1576563429914290148,161642,1576563429914290148,base_link,10.1166,0.00023655082519,4,0
1576563429946518992,161643,1576563429946518992,base_link,10.09905,0.000236761448363,4,0
1576563429981278357,161644,1576563429981278357,base_link,10.04445,0.000237416771988,4,0
1576563430014657272,161645,1576563430014657272,base_link,9.984,0.00014288485185,4,0
1576563430046848524,161646,1576563430046848524,base_link,9.97035,4.76608630055e-05,4,0
1576563430081957421,161647,1576563430081957421,base_link,9.8982,4.78340748791e-05,4,0
1576563430114827745,161648,1576563430114827745,base_link,9.91965,4.7782579688e-05,4,0
1576563430147051850,161649,1576563430147051850,base_link,9.8787,4.78808880732e-05,4,0
1576563430180939678,161650,1576563430180939678,base_link,9.86115,4.79230192129e-05,4,0
1576563430215223089,161651,1576563430215223089,base_link,9.79485,4.80821714639e-05,4,0
1576563430248478450,161652,1576563430248478450,base_link,9.77145,0.0,4,0
1576563430282909037,161653,1576563430282909037,base_link,9.7227,-0.000144764843973,4,0
1576563430315544070,161654,1576563430315544070,base_link,9.67005,-0.000241905445249,4,0
1576563430347782438,161655,1576563430347782438,base_link,9.6603,-0.000484039897836,4,0
1576563430383005343,161656,1576563430383005343,base_link,9.6174,-0.000630585890916,4,0
1576563430416286918,161657,1576563430416286918,base_link,9.58815,-0.000631497904484,4,0
1576563430449121770,161658,1576563430449121770,base_link,9.5589,-0.000632409769898,4,0
1576563430483446840,161659,1576563430483446840,base_link,9.51795,-0.000584942220619,4,0
1576563430516436483,161660,1576563430516436483,base_link,9.4965,-0.00058555922676,4,0
1576563430548612151,161661,1576563430548612151,base_link,9.45165,-0.000586849022979,4,0
1576563430583923214,161662,1576563430583923214,base_link,9.4185,-0.000489837067738,4,0
1576563430616999001,161663,1576563430616999001,base_link,9.3912,-0.000490490955238,4,0
1576563430650115787,161664,1576563430650115787,base_link,9.3795,-0.000392618534542,4,0
1576563430684352092,161665,1576563430684352092,base_link,9.3483,-0.000294913337944,4,0
1576563430717464976,161666,1576563430717464976,base_link,9.30735,-0.000246251698327,4,0
1576563430749639579,161667,1576563430749639579,base_link,9.2742,-0.000246648276361,4,0
1576563430784646935,161668,1576563430784646935,base_link,9.22545,-0.000148339347178,4,0
1576563430817882905,161669,1576563430817882905,base_link,9.20985,0.0,4,0
1576563430850982575,161670,1576563430850982575,base_link,9.17085,0.000148732708417,4,0
1576563430885370299,161671,1576563430885370299,base_link,9.18645,0.000495410129903,4,0
1576563430918208966,161672,1576563430918208966,base_link,9.1182,0.00084498126438,4,0
1576563430952982378,161673,1576563430952982378,base_link,9.10845,0.00109402875526,4,0
1576563430985929727,161674,1576563430985929727,base_link,9.03435,0.00164691644245,4,0
1576563431018912797,161675,1576563431018912797,base_link,9.0168,0.00214782681179,4,0
1576563431050903144,161676,1576563431050903144,base_link,8.9856,0.00250122893005,4,0
1576563431086747282,161677,1576563431086747282,base_link,8.93685,0.00310880378103,4,0
1576563431118971768,161678,1576563431118971768,base_link,8.9076,0.00346465464007,4,0
1576563431151162382,161679,1576563431151162382,base_link,8.92515,0.00366248467158,4,0
1576563431187138387,161680,1576563431187138387,base_link,8.85495,0.00367468073711,4,0
1576563431219845085,161681,1576563431219845085,base_link,8.82375,0.00347841764686,4,0
1576563431251756079,161682,1576563431251756079,base_link,8.8062,0.00348129555947,4,0
1576563431286737713,161683,1576563431286737713,base_link,8.7555,0.00348960397734,4,0
1576563431320156855,161684,1576563431320156855,base_link,8.7399,0.00344154039813,4,0
1576563431352203420,161685,1576563431352203420,base_link,8.697,0.00344845984807,4,0
1576563431387196124,161686,1576563431387196124,base_link,8.6853,0.00334885084042,4,0
1576563431420634985,161687,1576563431420634985,base_link,8.6502,0.00325267910895,4,0
1576563431452548020,161688,1576563431452548020,base_link,8.62485,0.00325652049724,4,0
1576563431485824444,161689,1576563431485824444,base_link,8.5761,0.00316189100728,4,0
1576563431520758479,161690,1576563431520758479,base_link,8.5644,0.00311257327284,4,0
1576563431552902324,161691,1576563431552902324,base_link,8.5137,0.00291527152314,4,0
1576563431586956603,161692,1576563431586956603,base_link,8.4513,0.0027697663995,4,0
1576563431622161430,161693,1576563431622161430,base_link,8.43375,0.00256664401943,4,0
1576563431653469060,161694,1576563431653469060,base_link,8.39865,0.00241651405934,4,0
1576563431688484226,161695,1576563431688484226,base_link,8.38695,0.00185189402378,4,0
1576563431721524931,161696,1576563431721524931,base_link,8.3226,0.00139297706517,4,0
1576563431753906170,161697,1576563431753906170,base_link,8.307,0.000671148382276,4,0
1576563431789178788,161698,1576563431789178788,base_link,8.23485,0.000155384460083,4,0
1576563431823076092,161699,1576563431823076092,base_link,8.18025,-0.000674969834976,4,0
1576563431854217711,161700,1576563431854217711,base_link,8.1159,-0.00161413800452,4,0
1576563431889233329,161701,1576563431889233329,base_link,8.06325,-0.00224418226711,4,0
1576563431922522356,161702,1576563431922522356,base_link,8.0223,-0.00334612096045,4,0
1576563431954715970,161703,1576563431954715970,base_link,7.96185,-0.00398408088405,4,0
1576563431989808439,161704,1576563431989808439,base_link,7.9131,-0.00499062313518,4,0
1576563432022822628,161705,1576563432022822628,base_link,7.8663,-0.00610608529035,4,0
1576563432055220660,161706,1576563432055220660,base_link,7.8195,-0.00706777493652,4,0
1576563432090709324,161707,1576563432090709324,base_link,7.7844,-0.00845158740817,4,0
1576563432124172339,161708,1576563432124172339,base_link,7.7064,-0.00959286103689,4,0
1576563432155600899,161709,1576563432155600899,base_link,7.6713,-0.0109868630094,4,0
1576563432190674822,161710,1576563432190674822,base_link,7.6323,-0.0137152391836,4,0
1576563432224532550,161711,1576563432224532550,base_link,7.57575,-0.0152929402395,4,0
1576563432256732647,161712,1576563432256732647,base_link,7.527,-0.0179392637679,4,0
1576563432290886993,161713,1576563432290886993,base_link,7.50165,-0.0205753268685,4,0
1576563432325007524,161714,1576563432325007524,base_link,7.4295,-0.0235301635151,4,0
1576563432356275316,161715,1576563432356275316,base_link,7.36905,-0.0255762094466,4,0
1576563432391253137,161716,1576563432391253137,base_link,7.3125,-0.0288106519442,4,0
1576563432424757710,161717,1576563432424757710,base_link,7.26765,-0.0320973029933,4,0
1576563432457461140,161718,1576563432457461140,base_link,7.2072,-0.0344998877581,4,0
1576563432491607877,161719,1576563432491607877,base_link,7.16235,-0.0382417201361,4,0
1576563432525106524,161720,1576563432525106524,base_link,7.0941,-0.0420359761042,4,0
1576563432560370819,161721,1576563432560370819,base_link,7.0395,-0.0447373338228,4,0
1576563432592149224,161722,1576563432592149224,base_link,6.97905,-0.0485493604867,4,0
1576563432625427078,161723,1576563432625427078,base_link,6.94785,-0.0524797906879,4,0
1576563432658233908,161724,1576563432658233908,base_link,6.9264,-0.0551970000366,4,0
